[
    {
        "type": "node",
        "id": 358679583,
        "lat": 33.7550283,
        "lon": -84.3716306,
        "tags": {
            "amenity": "school",
            "ele": "314",
            "gnis:county_id": "121",
            "gnis:created": "09/25/1979",
            "gnis:feature_id": "310602",
            "gnis:state_id": "13",
            "name": "Archbishop R Ryan Memorial School"
        }
    },
    {
        "type": "node",
        "id": 358782774,
        "lat": 33.7556618,
        "lon": -84.3732596,
        "tags": {
            "ele": "307",
            "gnis:county_id": "121",
            "gnis:created": "12/03/1996",
            "gnis:feature_id": "1704933",
            "gnis:state_id": "13",
            "historic": "district",
            "leisure": "park",
            "name": "Martin Luther King Junior Historic District"
        }
    },
    {
        "type": "node",
        "id": 358782809,
        "lat": 33.7551062,
        "lon": -84.3735374,
        "tags": {
            "ele": "307",
            "gnis:county_id": "121",
            "gnis:created": "12/03/1996",
            "gnis:feature_id": "1704949",
            "gnis:state_id": "13",
            "leisure": "park",
            "name": "Martin Luther King Junior National Urban Park",
            "name:etymology:wikidata": "Q8027"
        }
    },
    {
        "type": "node",
        "id": 535760911,
        "lat": 33.7465083,
        "lon": -84.3694076,
        "tags": {
            "addr:housenumber": "563",
            "addr:street": "Memorial Drive",
            "amenity": "restaurant",
            "cuisine": "noodle",
            "name": "Doc Chey's Noodle House",
            "opening_hours": "Mo-Su 11:30-22:00",
            "phone": "+1-404-688-4238",
            "website": "https://www.doccheys.com/locations/grantpark.php"
        }
    },
    {
        "type": "node",
        "id": 536669081,
        "lat": 33.7479065,
        "lon": -84.3679063,
        "tags": {
            "amenity": "restaurant",
            "name": "Agave"
        }
    },
    {
        "type": "node",
        "id": 1127168751,
        "lat": 33.7556878,
        "lon": -84.3817848,
        "tags": {
            "amenity": "restaurant",
            "cuisine": "caribbean",
            "name": "Mangos Caribbean",
            "opening_hours": "Mo-We 11:00-22:00, Th-Su 11:00-04:00"
        }
    },
    {
        "type": "node",
        "id": 1127168752,
        "lat": 33.7556908,
        "lon": -84.381305,
        "tags": {
            "amenity": "restaurant",
            "name": "Buns and Shakes"
        }
    },
    {
        "type": "node",
        "id": 1127215859,
        "lat": 33.7556502,
        "lon": -84.3811165,
        "tags": {
            "name": "Silver Moon Barber",
            "shop": "hairdresser"
        }
    },
    {
        "type": "node",
        "id": 1127215860,
        "lat": 33.7558155,
        "lon": -84.3799353,
        "tags": {
            "name": "Yanise Monet",
            "shop": "hairdresser"
        }
    },
    {
        "type": "node",
        "id": 1127215868,
        "lat": 33.755637,
        "lon": -84.3795095,
        "tags": {
            "amenity": "restaurant",
            "name": "Wok and Roll"
        }
    },
    {
        "type": "node",
        "id": 1127215870,
        "lat": 33.7556461,
        "lon": -84.3798093,
        "tags": {
            "name": "Sweet Auburn Bread",
            "shop": "bakery"
        }
    },
    {
        "type": "node",
        "id": 1127215873,
        "lat": 33.7556503,
        "lon": -84.3811971,
        "tags": {
            "name": "Sweet Auburn Grocery",
            "shop": "convenience"
        }
    },
    {
        "type": "node",
        "id": 1127215875,
        "lat": 33.7556457,
        "lon": -84.3800641,
        "tags": {
            "name": "Controversy Boutique",
            "shop": "clothes"
        }
    },
    {
        "type": "node",
        "id": 1139929635,
        "lat": 33.7556459,
        "lon": -84.3790761,
        "tags": {
            "amenity": "pub",
            "name": "Tap Out Billiards"
        }
    },
    {
        "type": "node",
        "id": 1139929639,
        "lat": 33.7556551,
        "lon": -84.3796994,
        "tags": {
            "beauty": "nails",
            "name": "Chocolate Nail Shop",
            "shop": "beauty"
        }
    },
    {
        "type": "node",
        "id": 1139929666,
        "lat": 33.7556803,
        "lon": -84.3816274,
        "tags": {
            "amenity": "bar",
            "name": "Royal Peacock Lounge",
            "opening_hours": "Fr-Su 10:00-04:00; Mo-Th off"
        }
    },
    {
        "type": "node",
        "id": 1141444131,
        "lat": 33.7497186,
        "lon": -84.3787121,
        "tags": {
            "addr:housenumber": "349",
            "addr:street": "Decatur Street",
            "amenity": "cafe",
            "cuisine": "coffee_shop",
            "name": "Marlee's Coffee and Tea"
        }
    },
    {
        "type": "node",
        "id": 1156307960,
        "lat": 33.7535544,
        "lon": -84.3845598,
        "tags": {
            "leisure": "playground",
            "name": "GSU Daycare Center"
        }
    },
    {
        "type": "node",
        "id": 1179861852,
        "lat": 33.7557832,
        "lon": -84.376726,
        "tags": {
            "name": "C J Walkers Beauty Shoppe & Museum",
            "shop": "hairdresser",
            "tourism": "museum",
            "website": "https://www.madamecjwalkermuseum.com/"
        }
    },
    {
        "type": "node",
        "id": 1179861860,
        "lat": 33.7558412,
        "lon": -84.3767207,
        "tags": {
            "name": "Burden's Barber Shop",
            "shop": "hairdresser"
        }
    },
    {
        "type": "node",
        "id": 1179861864,
        "lat": 33.7545522,
        "lon": -84.3791899,
        "tags": {
            "amenity": "restaurant",
            "bar": "yes",
            "name": "Spanish Harlem"
        }
    },
    {
        "type": "node",
        "id": 1246052475,
        "lat": 33.7544311,
        "lon": -84.3726945,
        "tags": {
            "addr:housename": "Samaritan House of Atlanta",
            "addr:housenumber": "458",
            "addr:street": "Edgewood Avenue Southeast",
            "amenity": "cafe",
            "cuisine": "american",
            "name": "Cafe 458",
            "source": "image"
        }
    },
    {
        "type": "node",
        "id": 1249461116,
        "lat": 33.7546359,
        "lon": -84.3840274,
        "tags": {
            "shop": "books"
        }
    },
    {
        "type": "node",
        "id": 1257132589,
        "lat": 33.755396,
        "lon": -84.3777699,
        "tags": {
            "historic": "monument",
            "name": "John Wesley Dobbs"
        }
    },
    {
        "type": "node",
        "id": 1573459671,
        "lat": 33.7550326,
        "lon": -84.3734149,
        "tags": {
            "historic": "memorial",
            "memorial": "tomb",
            "name": "Dr. and Mrs. King's Tomb",
            "subject:wikidata": "Q8027"
        }
    },
    {
        "type": "node",
        "id": 1973081734,
        "lat": 33.746078,
        "lon": -84.3727959,
        "tags": {
            "addr:housenumber": "437",
            "addr:postcode": "30312",
            "addr:street": "Memorial Drive Southeast",
            "amenity": "cafe",
            "internet_access": "wlan",
            "name": "The Little Tart Bakeshop",
            "old_name": "Octane Coffee",
            "opening_hours": "Mo-Fr 07:00-18:00; Sa-Su 08:00-16:00",
            "opening_hours:covid19": "Mo-Su 08:00-14:00",
            "outdoor_seating": "yes",
            "website": "https://www.littletartatl.com/location/grant-park/"
        }
    },
    {
        "type": "node",
        "id": 2288049569,
        "lat": 33.7489743,
        "lon": -84.3679405,
        "tags": {
            "addr:city": "Atlanta",
            "addr:housenumber": "208",
            "addr:postcode": "30312",
            "addr:state": "GA",
            "addr:street": "Carroll Street Southeast",
            "amenity": "restaurant",
            "cuisine": "american",
            "internet_access": "wlan",
            "internet_access:fee": "no",
            "name": "Carrol Street Cafe"
        }
    },
    {
        "type": "node",
        "id": 2626402978,
        "lat": 33.7422084,
        "lon": -84.3732891,
        "tags": {
            "name": "Loose Nuts",
            "shop": "bicycle",
            "website": "http://www.loosenutscycles.com"
        }
    },
    {
        "type": "node",
        "id": 2969376076,
        "lat": 33.7420813,
        "lon": -84.3733069,
        "tags": {
            "addr:city": "Atlanta",
            "addr:housenumber": "454",
            "addr:postcode": "30312",
            "addr:street": "Cherokee Avenue Southeast",
            "amenity": "restaurant",
            "name": "Dakota Blue"
        }
    },
    {
        "type": "node",
        "id": 3395223194,
        "lat": 33.7511907,
        "lon": -84.3854161,
        "tags": {
            "addr:city": "Atlanta",
            "addr:housenumber": "100",
            "addr:postcode": "30303",
            "addr:state": "GA",
            "addr:street": "Piedmont Avenue Southeast",
            "amenity": "restaurant",
            "cuisine": "mexican",
            "name": "Willy's Mexicana Grill",
            "wheelchair": "no"
        }
    },
    {
        "type": "node",
        "id": 3485157910,
        "lat": 33.7554483,
        "lon": -84.3828534,
        "tags": {
            "addr:city": "Atlanta",
            "addr:housenumber": "145",
            "addr:postcode": "30303",
            "addr:state": "GA",
            "addr:street": "Auburn Avenue Northeast",
            "addr:unit": "A",
            "amenity": "cafe",
            "cuisine": "coffee_shop",
            "internet_access": "yes",
            "name": "Refugee Coffee"
        }
    },
    {
        "type": "node",
        "id": 3485166783,
        "lat": 33.7554465,
        "lon": -84.3827845,
        "tags": {
            "addr:city": "Atlanta",
            "addr:housenumber": "45",
            "addr:postcode": "30303",
            "addr:state": "GA",
            "addr:street": "Auburn Avenue",
            "amenity": "cafe",
            "cuisine": "juice",
            "name": "Arden's Garden"
        }
    },
    {
        "type": "node",
        "id": 5236656422,
        "lat": 33.7422197,
        "lon": -84.3735188,
        "tags": {
            "addr:postcode": "30312-3250",
            "amenity": "restaurant",
            "cuisine": "pizza",
            "name": "Grant Central Pizza",
            "phone": "+1 404-523-8900"
        }
    },
    {
        "type": "node",
        "id": 5353831522,
        "lat": 33.7559246,
        "lon": -84.3680886,
        "tags": {
            "addr:postcode": "30312",
            "amenity": "restaurant",
            "cuisine": "sandwich",
            "email": "getfresh@lottafrutta.com",
            "name": "LottaFrutta",
            "opening_hours": "Tu-Su 12:00-17:00",
            "phone": "4045880857",
            "website": "https://www.lottafrutta.com/"
        }
    },
    {
        "type": "node",
        "id": 5353844022,
        "lat": 33.7447774,
        "lon": -84.3796009,
        "tags": {
            "addr:postcode": "30316",
            "name": "American Deli",
            "shop": "convenience"
        }
    },
    {
        "type": "node",
        "id": 5542664821,
        "lat": 33.7465407,
        "lon": -84.3707823,
        "tags": {
            "addr:housenumber": "519",
            "addr:postcode": "30312",
            "addr:street": "Memorial Drive Southeast",
            "name": "Grant Park Market",
            "shop": "convenience"
        }
    },
    {
        "type": "node",
        "id": 7101656352,
        "lat": 33.7465496,
        "lon": -84.3736541,
        "tags": {
            "addr:city": "Atlanta",
            "addr:housenumber": "421",
            "addr:postcode": "30312",
            "addr:state": "GA",
            "addr:street": "Memorial Drive Southeast",
            "amenity": "restaurant",
            "check_date": "2023-09-24",
            "email": "mailto:boss@riasbluebird.com",
            "name": "Ria's Bluebird",
            "opening_hours": "Mo,Th-Su 09:00-15:00; Tu-We off",
            "payment:mastercard": "yes",
            "payment:visa": "yes",
            "phone": "+1-404-521-3737",
            "website": "https://order.riasbluebird.com/",
            "wheelchair": "yes"
        }
    },
    {
        "type": "node",
        "id": 7101656353,
        "lat": 33.7465696,
        "lon": -84.3738821,
        "tags": {
            "addr:city": "Atlanta",
            "addr:housenumber": "415",
            "addr:postcode": "30312",
            "addr:state": "GA",
            "addr:street": "Memorial Drive Southeast",
            "amenity": "restaurant",
            "check_date": "2023-09-24",
            "cuisine": "mexican",
            "name": "Tin Lizzy's Cantina",
            "opening_hours": "Mo-Th,Su 11:00-23:00; Fr-Sa 11:00-01:00",
            "payment:mastercard": "yes",
            "payment:visa": "yes",
            "phone": "+1-404-554-8220",
            "website": "https://tinlizzyscantina.com/",
            "wheelchair": "yes"
        }
    },
    {
        "type": "node",
        "id": 7101656354,
        "lat": 33.7466321,
        "lon": -84.3727743,
        "tags": {
            "addr:housenumber": "437",
            "addr:postcode": "30312",
            "addr:state": "GA",
            "addr:street": "Memorial Drive Southeast",
            "addr:unit": "1A",
            "amenity": "restaurant",
            "check_date": "2023-09-24",
            "cuisine": "seafood",
            "email": "437party@sixfeetunder.net",
            "name": "Six Feet Under Pub & Fish House",
            "opening_hours": "Mo-Th,Su 11:00-23:00; Fr-Sa 11:00-24:00",
            "payment:mastercard": "yes",
            "payment:visa": "yes",
            "phone": "+1 404-523-6664",
            "website": "https://www.sixfeetunder.net/",
            "wheelchair": "yes"
        }
    },
    {
        "type": "node",
        "id": 7476200729,
        "lat": 33.7550753,
        "lon": -84.3793377,
        "tags": {
            "historic": "memorial",
            "inscription": "WITHIN THESE WALLS: In 1968, Hanley's Bell Street Funeral Home Was the site where the physical body of a visionary leader (Martin Luther King Jr.) prepared to be laid to rest by family and community as his soul made its journey Home.",
            "memorial": "plaque",
            "name": "Hanley's Funeral Home Historical Marker"
        }
    },
    {
        "type": "node",
        "id": 7495598472,
        "lat": 33.7556628,
        "lon": -84.383776,
        "tags": {
            "historic": "memorial",
            "memorial": "plaque",
            "name": "Alonzo Herndon"
        }
    },
    {
        "type": "node",
        "id": 7496572689,
        "lat": 33.756111,
        "lon": -84.3796194,
        "tags": {
            "ele": "307",
            "gnis:county_id": "121",
            "gnis:created": "12/03/1996",
            "gnis:feature_id": "1704967",
            "gnis:state_id": "13",
            "leisure": "park",
            "name": "Martin Luther King Junior National Historic Site"
        }
    },
    {
        "type": "node",
        "id": 7774632886,
        "lat": 33.7541678,
        "lon": -84.3669633,
        "tags": {
            "addr:housenumber": "619",
            "addr:postcode": "30312",
            "addr:street": "Edgewood Avenue Northeast",
            "amenity": "restaurant",
            "name": "planet Bombay"
        }
    },
    {
        "type": "node",
        "id": 7847578011,
        "lat": 33.7554516,
        "lon": -84.3818572,
        "tags": {
            "name": "For Keeps! Book Store",
            "shop": "books"
        }
    },
    {
        "type": "node",
        "id": 8104907874,
        "lat": 33.75394,
        "lon": -84.3845001,
        "tags": {
            "amenity": "theatre",
            "name": "Georgia State Players' Theatre"
        }
    },
    {
        "type": "node",
        "id": 8113134896,
        "lat": 33.7536441,
        "lon": -84.3845713,
        "tags": {
            "leisure": "playground"
        }
    },
    {
        "type": "node",
        "id": 8197325846,
        "lat": 33.7552117,
        "lon": -84.3734158,
        "tags": {
            "historic": "memorial",
            "name": "Eternal Flame"
        }
    },
    {
        "type": "node",
        "id": 8197438187,
        "lat": 33.7540764,
        "lon": -84.3716369,
        "tags": {
            "amenity": "bar",
            "name": "Locker Club"
        }
    },
    {
        "type": "node",
        "id": 8197438188,
        "lat": 33.7541737,
        "lon": -84.3716339,
        "tags": {
            "amenity": "bar",
            "name": "Old Fourth"
        }
    },
    {
        "type": "node",
        "id": 8197442017,
        "lat": 33.7541932,
        "lon": -84.371551,
        "tags": {
            "amenity": "bar",
            "name": "Church Annex"
        }
    },
    {
        "type": "node",
        "id": 8340377233,
        "lat": 33.749938,
        "lon": -84.3772282,
        "tags": {
            "amenity": "theatre",
            "name": "Village Theatre"
        }
    },
    {
        "type": "node",
        "id": 8340377234,
        "lat": 33.7498963,
        "lon": -84.3776844,
        "tags": {
            "name": "Ken Bailey Hair Studio",
            "shop": "hairdresser"
        }
    },
    {
        "type": "node",
        "id": 10093411941,
        "lat": 33.7521747,
        "lon": -84.3823481,
        "tags": {
            "amenity": "cafe",
            "brand": "Starbucks",
            "brand:wikidata": "Q37158",
            "contact:website": "https://www.starbucks.com/store-locator/store/1030792/secure-access-grady-hospital-80-jesse-hill-jr-dr-se-atlanta-ga-30303-us",
            "cuisine": "coffee_shop",
            "name": "Starbucks",
            "official_name": "Starbucks Coffee",
            "takeaway": "yes"
        }
    },
    {
        "type": "node",
        "id": 11230225937,
        "lat": 33.7542642,
        "lon": -84.3758902,
        "tags": {
            "addr:housenumber": "357",
            "addr:street": "Edgewood Avenue Northeast",
            "amenity": "bar",
            "name": "Noni's"
        }
    },
    {
        "type": "node",
        "id": 11289782942,
        "lat": 33.745633,
        "lon": -84.3684991,
        "tags": {
            "addr:housenumber": "580",
            "addr:street": "Woodward Avenue Southeast",
            "air_conditioning": "yes",
            "amenity": "restaurant",
            "cuisine": "filipino",
            "name": "Estrellita",
            "opening_hours": "Mo off; Tu-Sa 12:00-22:00; Su 12:00-20:00",
            "phone": "(404) 390-3038",
            "website": "https://www.estrellitafilipino.com/"
        }
    },
    {
        "type": "node",
        "id": 11314810969,
        "lat": 33.7544335,
        "lon": -84.3720279,
        "tags": {
            "addr:postcode": "30312",
            "amenity": "restaurant",
            "contact:facebook": "111255914653316",
            "contact:instagram": "thehandlebaratl",
            "cuisine": "american",
            "email": "mailto:thehandlebaratl@gmail.com",
            "name": "HandleBar",
            "opening_hours": "Mo-Sa 11:00-02:00; Su 11:00-00:00",
            "phone": "+14046002639",
            "website": "https://handlebar-atl.com/#"
        }
    },
    {
        "type": "node",
        "id": 11635666818,
        "lat": 33.7465032,
        "lon": -84.3687236,
        "tags": {
            "amenity": "restaurant",
            "check_date": "2024-02-17",
            "cuisine": "mexican",
            "name": "Mi Barrio"
        }
    },
    {
        "type": "node",
        "id": 11684875290,
        "lat": 33.7475328,
        "lon": -84.3796967,
        "tags": {
            "addr:housenumber": "240",
            "addr:street": "Martin Luther King Junior Drive Southeast",
            "amenity": "restaurant",
            "check_date": "2024-03-02",
            "cuisine": "greek",
            "email": "nicksftg@gmail.com",
            "name": "Nick's Food To Go",
            "opening_hours": "Mo-Fr 11:00-19:00; Sa-Su off",
            "phone": "+1 404-521-2220",
            "website": "https://www.nicksfood.com/"
        }
    },
    {
        "type": "way",
        "id": 23907855,
        "nodes": [
            259137807,
            7502147691,
            7502147692,
            7502147693,
            7502147694,
            7502147695,
            7502147696,
            7502120208,
            7494878163,
            7502147679,
            7502147680,
            7502147681,
            7502147682,
            7502147683,
            7502147685,
            7502147686,
            7502147687,
            7502147688,
            7502147689,
            7502147690,
            259137807
        ],
        "tags": {
            "ele": "310",
            "gnis:feature_id": "1695061",
            "leisure": "park",
            "name": "Hurt Park",
            "operator": "GSU",
            "source:ele": "USGS Geonames"
        }
    },
    {
        "type": "way",
        "id": 28798338,
        "nodes": [
            316634887,
            6939547520,
            7105320807,
            6939547519,
            316634890,
            6939547518,
            6939547521,
            6939547523,
            6939547522,
            7105320681,
            7105320673,
            7105320671,
            316636111,
            316634891,
            6939547524,
            6939547527,
            6939547526,
            6939547525,
            6939547537,
            316634892,
            7105216036,
            7104817626,
            7104817628,
            7538785191,
            7538777159,
            7538785210,
            7112602517,
            8691149274,
            8691149271,
            7112602514,
            7112602509,
            316634893,
            6939547535,
            6939547528,
            6939547529,
            561012677,
            6939547530,
            6939547574,
            6939547531,
            6939547533,
            6939547534,
            6939547532,
            561012553,
            6903520738,
            6939547543,
            316634894,
            9664352543,
            6939547545,
            561037296,
            6939547544,
            9664352542,
            6939548698,
            9664352541,
            6903520740,
            6939547547,
            6939547548,
            6939547546,
            6939547549,
            6939547550,
            6939547552,
            6939547553,
            6939547551,
            9664352540,
            6939548719,
            6939548724,
            6939547556,
            6939547557,
            6939547555,
            6939547554,
            6903520754,
            6903520743,
            6939548992,
            6903520746,
            6939548688,
            6939547583,
            316634887
        ],
        "tags": {
            "leisure": "park",
            "name": "Grant Park",
            "wikidata": "Q5596396",
            "wikipedia": "en:Grant Park, Atlanta"
        }
    },
    {
        "type": "way",
        "id": 34775427,
        "nodes": [
            8026766867,
            407912441,
            8026766870,
            8026766864,
            8026766867
        ],
        "tags": {
            "LandPro08:DE3": "UNDEVELOPABLE",
            "LandPro08:LC_NAME": "PARKS",
            "LandPro08:LU_NAME": "PARKS",
            "LandPro08:reviewed": "no",
            "leisure": "park",
            "name": "Rawson-Washington Park",
            "source": "LandPro08"
        }
    },
    {
        "type": "way",
        "id": 34775435,
        "nodes": [
            408175369,
            408175368,
            7630126526,
            408175367,
            408175366,
            7630126522,
            7630126523,
            408175365,
            408175373,
            7630126647,
            408175372,
            7630126524,
            408175371,
            7630126660,
            408175370,
            7630126525,
            408175369
        ],
        "tags": {
            "LandPro08:DE3": "UNDEVELOPABLE",
            "LandPro08:LC_NAME": "PARKS",
            "LandPro08:LU_NAME": "PARKS",
            "LandPro08:reviewed": "no",
            "leisure": "park",
            "name": "Cabbagetown Park",
            "source": "LandPro08"
        }
    },
    {
        "type": "way",
        "id": 34775443,
        "nodes": [
            3935277516,
            406202329,
            406202331,
            7996322867,
            7996322868,
            7996322869,
            7996322870,
            7996322871,
            7996322872,
            7996322873,
            7996322874,
            7996322875,
            7996322876,
            7996322877,
            7996322878,
            7996322879,
            3935277523,
            7996322818,
            6016411445,
            3935277520,
            3935277519,
            3935277518,
            3935277516
        ],
        "tags": {
            "LandPro08:DE3": "UNDEVELOPABLE",
            "LandPro08:LC_NAME": "PARKS",
            "LandPro08:LU_NAME": "PARKS",
            "LandPro08:reviewed": "no",
            "addr:city": "Atlanta",
            "addr:housenumber": "98",
            "addr:postcode": "30312",
            "addr:state": "GA",
            "addr:street": "William Holmes Borders Senior Drive Southeast",
            "ele": "305",
            "gnis:county_id": "121",
            "gnis:created": "12/03/1996",
            "gnis:feature_id": "1705138",
            "gnis:state_id": "13",
            "leisure": "park",
            "name": "Butler Park Recreation Center",
            "source": "LandPro08"
        }
    },
    {
        "type": "way",
        "id": 39448667,
        "nodes": [
            472475015,
            472475016,
            367914534,
            472475017,
            472475018,
            8113135571,
            8113135573,
            8113135572,
            472475019,
            472475015
        ],
        "tags": {
            "addr:state": "GA",
            "amenity": "marketplace",
            "building": "retail",
            "ele": "302",
            "gnis:county_name": "Fulton",
            "gnis:feature_id": "1695151",
            "name": "Atlanta Municipal Market",
            "source:ele": "USGS Geonames"
        }
    },
    {
        "type": "way",
        "id": 93729000,
        "nodes": [
            1088430465,
            1088430443,
            1088430445,
            1088430448,
            1088430465
        ],
        "tags": {
            "leisure": "pitch",
            "sport": "tennis"
        }
    },
    {
        "type": "way",
        "id": 96718870,
        "nodes": [
            1120065348,
            1120065352,
            7630142086,
            1120065345,
            1120065353,
            1120065347,
            1120065350,
            1120065346,
            1120065351,
            1120065349,
            1120065348
        ],
        "tags": {
            "leisure": "park",
            "name": "Esther Peachy Lefevre Park"
        }
    },
    {
        "type": "way",
        "id": 97333362,
        "nodes": [
            1127215885,
            1127215884,
            1127215883,
            1127215882,
            1127215881,
            1127215878,
            1127215885
        ],
        "tags": {
            "leisure": "park",
            "name": "John Calhoun Park"
        }
    },
    {
        "type": "way",
        "id": 102163020,
        "nodes": [
            1179113601,
            1179113506,
            1179113682,
            1179113659,
            1179113601
        ],
        "tags": {
            "addr:city": "Atlanta",
            "addr:housenumber": "330",
            "addr:postcode": "30312",
            "addr:street": "Edgewood Avenue Northeast",
            "amenity": "restaurant",
            "building": "yes",
            "cuisine": "american",
            "name": "Black Sheep Tavern",
            "old_name": "Eagle's Nest Community Church",
            "opening_hours": "Mo-Sa 12:00-02:30",
            "phone": "(470) 355-3964",
            "website": "https://www.blacksheeptavernatl.com/"
        }
    },
    {
        "type": "way",
        "id": 102163582,
        "nodes": [
            1179123471,
            1179123487,
            1179123482,
            1179123449,
            1179123496,
            1179123526,
            1179123504,
            1179123531,
            1179123509,
            1179123524,
            1179123443,
            1179123489,
            1179123543,
            1179123461,
            1179123495,
            1179123448,
            1179123498,
            1179123508,
            1179123456,
            1179123471
        ],
        "tags": {
            "addr:city": "Atlanta",
            "addr:housenumber": "101",
            "addr:postcode": "30303",
            "addr:street": "Auburn Avenue Northeast",
            "amenity": "library",
            "building": "library",
            "name": "Auburn Avenue Research Library",
            "phone": "+1 404 730 4001",
            "website": "http://www.afpls.org/aarl",
            "wikidata": "Q16740069",
            "wikipedia": "en:Auburn Avenue Research Library on African American Culture and History"
        }
    },
    {
        "type": "way",
        "id": 102166408,
        "nodes": [
            6014099760,
            6014099759,
            3958109677,
            6014099758,
            6014099757,
            7996307057,
            7996307074,
            8130628414,
            6014099756,
            3958109681,
            7996307068,
            7996322790,
            1179172528,
            1179172502,
            1179172532,
            1179172541,
            1179172484,
            1179172535,
            1179172561,
            1179172480,
            1179172522,
            1179172518,
            6014099760
        ],
        "tags": {
            "leisure": "park",
            "name": "J W Dobbs Plaza"
        }
    },
    {
        "type": "way",
        "id": 108653469,
        "nodes": [
            1246052477,
            1246052444,
            1246052487,
            1246052450,
            8197438181,
            1246052480,
            1246052474,
            1246052477
        ],
        "tags": {
            "addr:city": "Atlanta",
            "addr:housename": "464",
            "addr:housenumber": "462",
            "addr:postcode": "30312",
            "addr:street": "Edgewood Avenue Northeast",
            "amenity": "restaurant",
            "building": "yes",
            "building:use": "commercial",
            "cuisine": "international",
            "name": "Cafe Circa",
            "source": "image"
        }
    },
    {
        "type": "way",
        "id": 108653470,
        "nodes": [
            1246052476,
            1246052474,
            1246052480,
            1246052456,
            1246052476
        ],
        "tags": {
            "addr:city": "Atlanta",
            "addr:housenumber": "466",
            "addr:postcode": "30312",
            "addr:street": "Edgewood Avenue Southeast",
            "amenity": "bar",
            "building": "yes",
            "building:use": "commercial",
            "check_date": "2023-09-03",
            "contact:facebook": "SisterLouisasChurch",
            "contact:twitter": "sisterlouisa",
            "name": "Sister Louisa's Church of the Living Room & Ping Pong Emporium",
            "opening_hours": "Mo-Sa 17:00-03:00; Su 17:00-00:00",
            "phone": "(404) 522-8275",
            "source": "image",
            "website": "http://sisterlouisaschurch.com/"
        }
    },
    {
        "type": "way",
        "id": 108671760,
        "nodes": [
            1246335904,
            1246177707,
            8197325908,
            8197325909,
            1246177762,
            1246177746,
            1246335904
        ],
        "tags": {
            "addr:housenumber": "420",
            "addr:street": "Edgewood Avenue Southeast",
            "amenity": "bar",
            "building": "yes",
            "building:use": "commercial",
            "name": "Georgia Beer Garden",
            "source": "image"
        }
    },
    {
        "type": "way",
        "id": 108693214,
        "nodes": [
            1246335899,
            1246335908,
            1246335800,
            1246335793,
            1246335899
        ],
        "tags": {
            "building": "yes",
            "building:use": "commercial",
            "name": "GOD IS DOPE",
            "shop": "clothes",
            "source": "image"
        }
    },
    {
        "type": "way",
        "id": 108693215,
        "nodes": [
            1246335832,
            1246335810,
            1246335869,
            1246335831,
            1246335832
        ],
        "tags": {
            "building": "yes",
            "building:use": "commercial",
            "name": "Leslie's Barber Shop",
            "shop": "hairdresser",
            "source": "image"
        }
    },
    {
        "type": "way",
        "id": 108693217,
        "nodes": [
            1246335810,
            1246335908,
            1246335800,
            1246335869,
            1246335810
        ],
        "tags": {
            "amenity": "restaurant",
            "building": "yes",
            "building:use": "commercial",
            "cuisine": "seafood",
            "name": "Esco Seafood",
            "source": "image"
        }
    },
    {
        "type": "way",
        "id": 108693218,
        "nodes": [
            1246335888,
            1246335796,
            6228500505,
            1246335816,
            1246335888
        ],
        "tags": {
            "addr:city": "Atlanta",
            "addr:housenumber": "483",
            "addr:postcode": "30312",
            "addr:state": "GA",
            "addr:street": "Edgewood Avenue Southeast",
            "amenity": "bar",
            "building": "yes",
            "building:use": "commercial",
            "name": "Soundtable",
            "source": "image"
        }
    },
    {
        "type": "way",
        "id": 108693219,
        "nodes": [
            1246335819,
            1246335850,
            1246335839,
            1246335852,
            1246335874,
            1246335819
        ],
        "tags": {
            "addr:city": "Atlanta",
            "addr:housenumber": "478",
            "addr:postcode": "30312",
            "addr:street": "Edgewood Avenue Northeast",
            "amenity": "restaurant",
            "building": "yes",
            "building:use": "commercial",
            "check_date": "2023-09-03",
            "contact:facebook": "115250818500819",
            "contact:instagram": "edgewoodpizza",
            "cuisine": "pizza",
            "email": "mailto:hdeglel@gmail.com",
            "name": "Edgewood Pizzeria",
            "opening_hours": "Mo-Th 11:00-02:00; Fr-Sa 11:00-02:30; Su 11:00-00:00",
            "phone": "+14045225512",
            "source": "image",
            "website": "https://edgewoodpizzeria.com/"
        }
    },
    {
        "type": "way",
        "id": 108693220,
        "nodes": [
            1246335867,
            1246335833,
            1246335874,
            1246335852,
            1246335867
        ],
        "tags": {
            "addr:housenumber": "476",
            "addr:postcode": "30312",
            "addr:street": "Edgewood Avenue Northeast",
            "amenity": "restaurant",
            "building": "yes",
            "building:use": "commercial",
            "check_date": "2023-11-04",
            "contact:facebook": "sveganfoodtruck",
            "contact:instagram": "sluttyveganATL",
            "contact:twitter": "SLUTTYVEGANATL",
            "diet:vegan": "yes",
            "email": "mailto:ContactUs@SluttyVeganATL.com",
            "name": "Slutty Vegan Edgewood",
            "opening_hours": "Su, Tu-Th 12:00-00:00; Fr-Sa 12:00-01:00",
            "operator": "Slutty Vegan",
            "payment:cash": "no",
            "payment:mastercard": "yes",
            "payment:visa": "yes",
            "phone": "4704608344",
            "source": "image",
            "website": "https://sluttyveganatl.com/edgewood/",
            "wheelchair": "yes"
        }
    },
    {
        "type": "way",
        "id": 217822354,
        "nodes": [
            2271266463,
            2271266428,
            2271266381,
            2271266458,
            2271266392,
            2271266464,
            2271266396,
            2271266463
        ],
        "tags": {
            "leisure": "garden",
            "source": "bing_imagery"
        }
    },
    {
        "type": "way",
        "id": 217822358,
        "nodes": [
            2271266454,
            2271266445,
            2271266369,
            2271266425,
            2271266411,
            2271266429,
            2271266446,
            2271266427,
            2271266466,
            2271266375,
            2271266376,
            2271266469,
            2271266365,
            8202468524,
            2271266363,
            2271266457,
            2271266407,
            2271266403,
            8202468523,
            2271266438,
            2271266367,
            2271266454
        ],
        "tags": {
            "leisure": "garden",
            "source": "bing_imagery"
        }
    },
    {
        "type": "way",
        "id": 217822364,
        "nodes": [
            2271266418,
            2271266409,
            2271266414,
            2271266362,
            2271266418
        ],
        "tags": {
            "leisure": "garden",
            "source": "bing_imagery"
        }
    },
    {
        "type": "way",
        "id": 217822365,
        "nodes": [
            2271266412,
            2271266440,
            2271266404,
            2271266462,
            2271266412
        ],
        "tags": {
            "leisure": "garden",
            "source": "bing_imagery"
        }
    },
    {
        "type": "way",
        "id": 217823073,
        "nodes": [
            2271271845,
            2271271885,
            2271271876,
            2271271886,
            2271271867,
            2271271852,
            2271271873,
            2271271855,
            2271271869,
            2271271849,
            2271271845
        ],
        "tags": {
            "addr:city": "Atlanta",
            "addr:housenumber": "409",
            "addr:postcode": "30312",
            "addr:state": "GA",
            "addr:street": "John Wesley Dobbs Avenue Northeast",
            "amenity": "library",
            "building": "yes",
            "ele": "309",
            "gnis:county_name": "Fulton",
            "gnis:feature_id": "1704640",
            "gnis:import_uuid": "57871b70-0100-4405-bb30-88b2e001a944",
            "gnis:reviewed": "no",
            "name": "Martin Luther King Junior Branch Atlanta-Fulton Public Library",
            "name:etymology:wikidata": "Q8027",
            "source": "bing_imagery"
        }
    },
    {
        "type": "way",
        "id": 217823096,
        "nodes": [
            2271272137,
            2271272135,
            2271272136,
            2271272134,
            2271272137
        ],
        "tags": {
            "leisure": "pitch",
            "source": "bing_imagery"
        }
    },
    {
        "type": "way",
        "id": 270494123,
        "nodes": [
            2755069545,
            2755069546,
            2755069480,
            2755069478,
            2755069545
        ],
        "tags": {
            "amenity": "restaurant",
            "building": "yes",
            "name": "Staplehouse"
        }
    },
    {
        "type": "way",
        "id": 270876033,
        "nodes": [
            2758391279,
            2758391184,
            2758391182,
            2758391197,
            2758391195,
            2758391171,
            2758391170,
            2758391295,
            2758391299,
            2758391279
        ],
        "tags": {
            "addr:city": "Atlanta",
            "addr:housenumber": "14",
            "addr:postcode": "30312",
            "addr:street": "Bradley Street Southeast",
            "amenity": "restaurant",
            "building": "yes",
            "name": "Thumbs Up Diner"
        }
    },
    {
        "type": "way",
        "id": 270876296,
        "nodes": [
            2758391008,
            7996323091,
            2758391006,
            2758390975,
            2758390977,
            2758391009,
            2758391008
        ],
        "tags": {
            "addr:city": "Atlanta",
            "addr:housenumber": "569",
            "addr:postcode": "30312",
            "addr:state": "GA",
            "addr:street": "Ezzard Street Southeast",
            "air_conditioning": "yes",
            "amenity": "theatre",
            "building": "yes",
            "email": "tickets@dadsgarage.com",
            "name": "Dad's Garage",
            "phone": "+1 404 523 3141",
            "website": "https://dadsgarage.com/"
        }
    },
    {
        "type": "way",
        "id": 270876304,
        "nodes": [
            2758391291,
            2758391200,
            2758391199,
            2758391127,
            2758391129,
            2758391297,
            2758391291
        ],
        "tags": {
            "addr:city": "Atlanta",
            "addr:housenumber": "591",
            "addr:postcode": "30312",
            "addr:street": "Edgewood Avenue Southeast",
            "amenity": "restaurant",
            "building": "yes",
            "cuisine": "pizza",
            "name": "Ammazza"
        }
    },
    {
        "type": "way",
        "id": 270876314,
        "nodes": [
            2758385403,
            2758385405,
            2758385443,
            2758385445,
            2758385448,
            2758385551,
            2758385554,
            2758385615,
            2758385612,
            2758385656,
            2758385652,
            2758385594,
            2758385591,
            2758385460,
            2758385463,
            2758385398,
            2758385403
        ],
        "tags": {
            "addr:city": "Atlanta",
            "addr:housenumber": "597",
            "addr:postcode": "30316",
            "addr:street": "Gaskill Street Southeast",
            "amenity": "restaurant",
            "building": "yes",
            "name": "Agave"
        }
    },
    {
        "type": "way",
        "id": 271019839,
        "nodes": [
            2759656241,
            2759656249,
            2759656251,
            2759656225,
            2759656227,
            2759656323,
            2759656241
        ],
        "tags": {
            "addr:city": "Atlanta",
            "addr:housenumber": "264",
            "addr:postcode": "30312",
            "addr:street": "Memorial Drive Southeast",
            "amenity": "restaurant",
            "building": "yes",
            "cuisine": "barbecue",
            "name": "Daddy D'z",
            "website": "https://www.daddydz.com/"
        }
    },
    {
        "type": "way",
        "id": 271019921,
        "nodes": [
            2759655897,
            2759655891,
            2759655769,
            2759655786,
            2759655897
        ],
        "tags": {
            "addr:city": "Atlanta",
            "addr:housenumber": "304",
            "addr:postcode": "30312",
            "addr:street": "Oakland Avenue Southeast",
            "amenity": "restaurant",
            "building": "yes",
            "check_date": "2023-09-24",
            "cuisine": "mexican",
            "email": "mailto:mezcalitoscocina@gmail.com",
            "name": "Mezcalito's",
            "opening_hours": "Mo-Th,Su 11:00-22:00; Fr-Sa 11:00-22:30",
            "payment:mastercard": "yes",
            "payment:visa": "yes",
            "phone": "+1 678-705-7008",
            "website": "https://mezcalitoscocina.com/",
            "wheelchair": "yes"
        }
    },
    {
        "type": "way",
        "id": 271021522,
        "nodes": [
            2759655997,
            6933014741,
            2759656120,
            6933014742,
            6933014743,
            6933014744,
            6933014745,
            6933014746,
            6933014747,
            2759656118,
            2759655993,
            6933014748,
            6933014749,
            2759655997
        ],
        "tags": {
            "addr:city": "Atlanta",
            "addr:housenumber": "437",
            "addr:postcode": "30312",
            "addr:state": "GA",
            "addr:street": "Memorial Drive Southeast",
            "addr:unit": "C",
            "amenity": "pub",
            "building": "yes",
            "check_date": "2023-09-24",
            "name": "Republic Social House",
            "opening_hours": "Mo-We,Su 11:00-24:00; Th 11:00-01:00",
            "payment:mastercard": "yes",
            "payment:visa": "yes",
            "phone": "+1 404-577-3997",
            "website": "https://therepublicsocialhouse.com/",
            "wheelchair": "yes"
        }
    },
    {
        "type": "way",
        "id": 287304305,
        "nodes": [
            2909234611,
            2909234612,
            2909234613,
            2909234614,
            2909234611
        ],
        "tags": {
            "leisure": "pitch",
            "sport": "tennis"
        }
    },
    {
        "type": "way",
        "id": 287304306,
        "nodes": [
            2909234615,
            2909234616,
            2909234617,
            2909234618,
            2909234615
        ],
        "tags": {
            "leisure": "pitch",
            "sport": "tennis"
        }
    },
    {
        "type": "way",
        "id": 287304307,
        "nodes": [
            2909234619,
            2909234620,
            2909234621,
            2909234622,
            2909234619
        ],
        "tags": {
            "leisure": "pitch",
            "sport": "basketball"
        }
    },
    {
        "type": "way",
        "id": 307770645,
        "nodes": [
            3129742839,
            3129753001,
            3129753002,
            3129742840,
            3129742839
        ],
        "tags": {
            "addr:city": "Atlanta",
            "addr:housenumber": "584",
            "addr:postcode": "30312",
            "addr:street": "Woodward Avenue Southeast",
            "amenity": "restaurant",
            "building": "yes",
            "cuisine": "american",
            "name": "Stone Soup Kitchen",
            "opening_hours": "Mo-Fr 06:30-15:00; Sa-Su 09:30-15:00",
            "source": "Bing_Imagery; Local_Knowledge"
        }
    },
    {
        "type": "way",
        "id": 390362176,
        "nodes": [
            3935278076,
            3935278075,
            3935278072,
            3935278071,
            3935278073,
            3935278074,
            3935278076
        ],
        "tags": {
            "leisure": "playground"
        }
    },
    {
        "type": "way",
        "id": 431683059,
        "nodes": [
            4309086911,
            4309086912,
            4309086913,
            4309086914,
            4309086915,
            4309086916,
            4309086911
        ],
        "tags": {
            "addr:city": "Atlanta",
            "addr:housenumber": "427",
            "addr:state": "GA",
            "addr:street": "Edgewood Avenue Northeast",
            "amenity": "bar",
            "building": "yes",
            "name": "Joystick Game Bar",
            "wheelchair": "limited"
        }
    },
    {
        "type": "way",
        "id": 431683060,
        "nodes": [
            4309086911,
            4309086917,
            4309086921,
            4309086924,
            4309086918,
            4309086919,
            4309086920,
            4309086912,
            4309086911
        ],
        "tags": {
            "amenity": "bar",
            "building": "yes",
            "name": "Delightful Eatz"
        }
    },
    {
        "type": "way",
        "id": 431683068,
        "nodes": [
            4309086933,
            4309086935,
            4309086936,
            4309086934,
            4309086933
        ],
        "tags": {
            "addr:city": "Atlanta",
            "addr:housenumber": "16",
            "addr:postcode": "30312",
            "addr:street": "Jackson Street Southeast",
            "building": "yes",
            "name": "Atlanta Tattoo Supplies",
            "shop": "tattoo"
        }
    },
    {
        "type": "way",
        "id": 431683071,
        "nodes": [
            4309086937,
            2755067460,
            4309086940,
            4309086938,
            4309086937
        ],
        "tags": {
            "addr:city": "Atlanta",
            "addr:housenumber": "12",
            "addr:postcode": "30312",
            "addr:street": "Jackson Street Southeast",
            "building": "yes",
            "name": "The Audacity",
            "shop": "clothes"
        }
    },
    {
        "type": "way",
        "id": 431702347,
        "nodes": [
            4309301255,
            4309301256,
            4309301257,
            4309301258,
            4309301255
        ],
        "tags": {
            "amenity": "bar",
            "building": "yes",
            "name": "Clues and Cocktails"
        }
    },
    {
        "type": "way",
        "id": 431702348,
        "nodes": [
            4309301256,
            4309301259,
            4309301260,
            4309301257,
            4309301256
        ],
        "tags": {
            "building": "yes",
            "name": "Book Cafe",
            "shop": "books"
        }
    },
    {
        "type": "way",
        "id": 431702349,
        "nodes": [
            4309301259,
            4309301261,
            4309301262,
            4309301260,
            4309301259
        ],
        "tags": {
            "building": "yes",
            "name": "Auburn Discount Grocery",
            "shop": "supermarket"
        }
    },
    {
        "type": "way",
        "id": 431702351,
        "nodes": [
            4309301264,
            4309301266,
            4309301267,
            1139929638,
            4309301265,
            4309301264
        ],
        "tags": {
            "amenity": "restaurant",
            "building": "yes",
            "name": "Thelma's Kitchen"
        }
    },
    {
        "type": "way",
        "id": 431705645,
        "nodes": [
            4309353485,
            4309353486,
            4309353487,
            4309353488,
            4309353485
        ],
        "tags": {
            "amenity": "restaurant",
            "building": "yes",
            "cuisine": "jamaican",
            "name": "Foxx Jamaican"
        }
    },
    {
        "type": "way",
        "id": 431705647,
        "nodes": [
            4309354793,
            4309354794,
            4309354795,
            4309354796,
            4309354793
        ],
        "tags": {
            "building": "yes",
            "shop": "convenience"
        }
    },
    {
        "type": "way",
        "id": 470898408,
        "nodes": [
            4650774026,
            4650774029,
            4650774019,
            4650774038,
            4650774021,
            4650774033,
            4650774042,
            4650774018,
            4650774040,
            2271271863,
            2271271874,
            7649242980,
            8202468343,
            6016005650,
            4650774023,
            8228562412,
            4650774037,
            2271259086,
            8197325872,
            8197325871,
            4650774035,
            4650774025,
            4650774027,
            4650774028,
            4650774024,
            4650774032,
            4650774041,
            4650774036,
            4626827715,
            6307905780,
            7996323044,
            4626827713,
            4650774030,
            406080169,
            406080170,
            7996322817,
            4650774031,
            69292833,
            69258265,
            7996323030,
            4650774026
        ],
        "tags": {
            "boundary": "national_park",
            "communication:amateur_radio:pota": "K-0846",
            "leisure": "park",
            "name": "Martin Luther King Jr. National Historic Site",
            "name:etymology:wikidata": "Q8027"
        }
    },
    {
        "type": "way",
        "id": 474952078,
        "nodes": [
            2755069527,
            2755069565,
            8197438137,
            8197438138,
            2755069527
        ],
        "tags": {
            "addr:city": "Atlanta",
            "addr:housenumber": "381",
            "addr:postcode": "30312",
            "addr:state": "GA",
            "addr:street": "Edgewood Avenue Northeast",
            "amenity": "cafe",
            "building": "yes",
            "cuisine": "coffee_shop",
            "description": "Bike friendly cafe with outside seating.",
            "internet_access": "wlan",
            "name": "CAFE + VELO",
            "opening_hours": "Mo-Fr 08:00-17:00; Sa,Su 09:00-17:00",
            "outdoor_seating": "yes"
        }
    },
    {
        "type": "way",
        "id": 489112408,
        "nodes": [
            4813875849,
            4813875850,
            4813875851,
            4813875852,
            4813875849
        ],
        "tags": {
            "leisure": "pitch",
            "sport": "beachvolleyball",
            "surface": "sand"
        }
    },
    {
        "type": "way",
        "id": 586614408,
        "nodes": [
            5006641280,
            10158229568,
            5781330488,
            5781330490,
            10158229560,
            10158229559,
            406202451,
            406202450,
            408351671,
            408351676,
            5604434550,
            5770285653,
            9868221408,
            5604434549,
            5006641304,
            5006641305,
            5006641307,
            5604434543,
            6854507249,
            5781330475,
            2586580065,
            2586580067,
            2586580003,
            2758435589,
            2586579989,
            8109665638,
            2586579971,
            5006641309,
            5781330478,
            7501041573,
            3954061747,
            5006641314,
            5006641317,
            7847443278,
            5006641318,
            5781330469,
            5006641319,
            7502068764,
            7502068765,
            5006641320,
            10595033424,
            5781330481,
            5781330482,
            5006641280
        ],
        "tags": {
            "addr:city": "Atlanta",
            "addr:housenumber": "33",
            "addr:postcode": "30303",
            "addr:state": "GA",
            "addr:street": "Gilmer Street Southeast",
            "amenity": "university",
            "name": "Georgia State University",
            "operator": "The University System of Georgia",
            "operator:type": "public",
            "website": "https://www.gsu.edu/",
            "wikidata": "Q1509333",
            "wikipedia": "en:Georgia State University"
        }
    },
    {
        "type": "way",
        "id": 737362868,
        "nodes": [
            6903463144,
            6903463167,
            6903463145,
            6903463160,
            6903463161,
            6903463146,
            6903463147,
            6903463148,
            6903463149,
            6903463163,
            6903463150,
            6903463151,
            7703331612,
            7703331610,
            7703331606,
            7703331607,
            6903463152,
            6903463165,
            6903463164,
            6903463153,
            7703331603,
            6903463169,
            6903463168,
            7703331604,
            7703331599,
            7703331600,
            7703331602,
            7703331605,
            6903463154,
            6903463155,
            6903463156,
            6903463157,
            6903463144
        ],
        "tags": {
            "addr:city": "Atlanta",
            "addr:housenumber": "520",
            "addr:postcode": "30312",
            "addr:street": "Daniel Street Southeast",
            "barrier": "fence",
            "leisure": "dog_park",
            "name": "Fetch Park",
            "surface": "artificial_turf",
            "website": "https://www.fetchparkatl.com"
        }
    },
    {
        "type": "way",
        "id": 737362869,
        "nodes": [
            6903463158,
            6903463159,
            7703331614,
            7703331613,
            6903463158
        ],
        "tags": {
            "amenity": "bar",
            "building": "yes"
        }
    },
    {
        "type": "way",
        "id": 738377172,
        "nodes": [
            2755069498,
            2755069506,
            2755069429,
            2755069430,
            6914083814,
            2755069402,
            2755069498
        ],
        "tags": {
            "amenity": "cafe",
            "building": "yes",
            "name": "Chrome Yellow Trading Co."
        }
    },
    {
        "type": "way",
        "id": 739667246,
        "nodes": [
            6925636895,
            6925636894,
            7865831613,
            7865831612,
            6925636897,
            6925636895
        ],
        "tags": {
            "brand": "Ace Hardware",
            "brand:wikidata": "Q4672981",
            "building": "yes",
            "name": "Ace Hardware",
            "shop": "doityourself"
        }
    },
    {
        "type": "way",
        "id": 742982469,
        "nodes": [
            6955046126,
            6955046127,
            6955046128,
            6955046126
        ],
        "tags": {
            "leisure": "dog_park"
        }
    },
    {
        "type": "way",
        "id": 742982470,
        "nodes": [
            6955046129,
            6955046130,
            6955046131,
            6955046132,
            6955046129
        ],
        "tags": {
            "leisure": "dog_park"
        }
    },
    {
        "type": "way",
        "id": 801352552,
        "nodes": [
            7494806906,
            7494806907,
            7494806908,
            7494806909,
            7494806906
        ],
        "tags": {
            "access": "yes",
            "leisure": "pitch",
            "sport": "basketball"
        }
    },
    {
        "type": "way",
        "id": 801352553,
        "nodes": [
            7494806910,
            7494806911,
            7494806912,
            7494806913,
            7494806910
        ],
        "tags": {
            "access": "yes",
            "leisure": "pitch",
            "sport": "basketball"
        }
    },
    {
        "type": "way",
        "id": 801352554,
        "nodes": [
            7494806914,
            7494806915,
            7494806916,
            7494806917,
            7494806914
        ],
        "tags": {
            "leisure": "pitch",
            "sport": "tennis"
        }
    },
    {
        "type": "way",
        "id": 801352555,
        "nodes": [
            7494806921,
            8026766901,
            7494806922,
            7494806923,
            7494806924,
            7494806925,
            7494806926,
            7494806931,
            7494806927,
            7494806932,
            7494806928,
            7494806933,
            7494806929,
            7494806930,
            7494806921
        ],
        "tags": {
            "access": "yes",
            "leisure": "pitch",
            "sport": "softball"
        }
    },
    {
        "type": "way",
        "id": 801359975,
        "nodes": [
            7285629677,
            7285629678,
            7285629679,
            7285629680,
            7285629677
        ],
        "tags": {
            "leisure": "garden"
        }
    },
    {
        "type": "way",
        "id": 802210713,
        "nodes": [
            7503827445,
            7503827446,
            7503827442,
            7503827444,
            7503827445
        ],
        "tags": {
            "building": "yes",
            "shop": "convenience"
        }
    },
    {
        "type": "way",
        "id": 809862977,
        "nodes": [
            7571768695,
            7571768696,
            7571768697,
            7571768698,
            7571768695
        ],
        "tags": {
            "leisure": "pitch",
            "sport": "american_football"
        }
    },
    {
        "type": "way",
        "id": 809862985,
        "nodes": [
            7571768764,
            7571768765,
            7571768766,
            7571768767,
            7571768768,
            7571768769,
            7571768770,
            7571768771,
            7571768772,
            7571768773,
            7571768774,
            7571768775,
            7571768776,
            7571768777,
            7571768778,
            7571768779,
            7571768780,
            7571768781,
            7571768764
        ],
        "tags": {
            "leisure": "pitch",
            "sport": "baseball"
        }
    },
    {
        "type": "way",
        "id": 809862986,
        "nodes": [
            7571686184,
            7571768686,
            7571768782,
            2285000035,
            2285000038,
            2285000036,
            2285000037,
            2285000039,
            2285000042,
            7571768783,
            7571768784,
            7571768785,
            7571768786,
            7571768787,
            7571768788,
            3958109851,
            6014094969,
            6014094970,
            6014094971,
            7571686184
        ],
        "tags": {
            "landuse": "recreation_ground",
            "leisure": "park",
            "name": "Walden Athletics Complex",
            "operator": "Atlanta Public Schools"
        }
    },
    {
        "type": "way",
        "id": 816957463,
        "nodes": [
            7630142123,
            7630142124,
            7630142125,
            7630142126,
            7630142127,
            7630142128,
            7630142129,
            7630142130,
            7630142131,
            7630142132,
            7630142133,
            7630142134,
            7630142135,
            7630142136,
            7630142137,
            7630142138,
            7630142139,
            7630142140,
            7630142141,
            7630142142,
            7630142123
        ],
        "tags": {
            "leisure": "playground"
        }
    },
    {
        "type": "way",
        "id": 841048597,
        "nodes": [
            7847578040,
            7847578045,
            7847578041,
            7847578042,
            7847578043,
            7847578044,
            7847578040
        ],
        "tags": {
            "addr:city": "Atlanta",
            "addr:housenumber": "254",
            "addr:postcode": "30303",
            "addr:state": "GA",
            "addr:street": "Auburn Avenue Northeast",
            "amenity": "bar",
            "building": "yes",
            "name": "Pal's Lounge",
            "not:brand:wikidata": "Q7126094"
        }
    },
    {
        "type": "way",
        "id": 841048599,
        "nodes": [
            7847578047,
            7847578049,
            7847578050,
            7847578051,
            7847578046,
            7847578047
        ],
        "tags": {
            "abandoned": "yes",
            "amenity": "nightclub",
            "building": "yes"
        }
    },
    {
        "type": "way",
        "id": 861235958,
        "nodes": [
            8026766739,
            8026766740,
            8026766741,
            8026766742,
            8026766743,
            8026766744,
            8026766853,
            8026766854,
            8026766855,
            8026766856,
            8026766857,
            8026766858,
            8026766859,
            8026766860,
            8026766861,
            8026766862,
            8026766863,
            8026766745,
            8026766746,
            8026766747,
            8026766748,
            8026766771,
            8026766749,
            8026766750,
            8026766823,
            8026766826,
            8026766751,
            8026766752,
            8026766753,
            8026766754,
            8026766755,
            8026766756,
            8026766757,
            8026766850,
            8026766851,
            8026766758,
            8026766759,
            8026766760,
            8026766761,
            8026766762,
            8026766738,
            8026766763,
            8026766737,
            8026766764,
            8026766765,
            8026766766,
            8026766767,
            8026766768,
            8026766769,
            8026766770,
            8026766739
        ],
        "tags": {
            "access": "yes",
            "leisure": "playground",
            "playground:theme": "playground"
        }
    },
    {
        "type": "way",
        "id": 861235979,
        "nodes": [
            8026766871,
            8026766900,
            8026766893,
            8026766864,
            8026766870,
            8026766871
        ],
        "tags": {
            "amenity": "school",
            "ele": "306",
            "gnis:county_id": "121",
            "gnis:created": "09/25/1979",
            "gnis:feature_id": "312921",
            "gnis:state_id": "13",
            "name": "Wesley International Academy"
        }
    },
    {
        "type": "way",
        "id": 861236003,
        "nodes": [
            8026766977,
            8026766978,
            8026766979,
            8026766980,
            8026766977
        ],
        "tags": {
            "access": "private",
            "leisure": "playground"
        }
    },
    {
        "type": "way",
        "id": 861236072,
        "nodes": [
            8026767360,
            8026767357,
            8026767358,
            8026767353,
            8026767359,
            8026767191,
            8026767362,
            8026767363,
            8026767364,
            8026767365,
            8026767366,
            8026767361,
            8026767360
        ],
        "tags": {
            "landuse": "grass",
            "leisure": "park",
            "name": "Capital Gateway Park"
        }
    },
    {
        "type": "way",
        "id": 863050925,
        "nodes": [
            8040111015,
            8040111016,
            8040111017,
            8040111018,
            8040111015
        ],
        "tags": {
            "historic": "monument"
        }
    },
    {
        "type": "way",
        "id": 881405479,
        "nodes": [
            8197325830,
            8197325855,
            8197325828,
            8197325829,
            8197325830
        ],
        "tags": {
            "leisure": "garden"
        }
    },
    {
        "type": "way",
        "id": 881405480,
        "nodes": [
            8197325826,
            8197325827,
            8197325856,
            8197325857,
            8197325826
        ],
        "tags": {
            "leisure": "garden"
        }
    },
    {
        "type": "way",
        "id": 881405481,
        "nodes": [
            8197325853,
            8197325852,
            8197325855,
            8197325828,
            8197325827,
            8197325856,
            8197325854,
            8197325853
        ],
        "tags": {
            "leisure": "garden"
        }
    },
    {
        "type": "way",
        "id": 881405482,
        "nodes": [
            8197325852,
            1843282944,
            8197325851,
            8197325850,
            8197325849,
            8197325853,
            8197325852
        ],
        "tags": {
            "leisure": "garden"
        }
    },
    {
        "type": "way",
        "id": 881417353,
        "nodes": [
            1246335904,
            8197438119,
            8197415114,
            1246177777,
            8197415115,
            8197415116,
            8197438117,
            8197438118,
            8197325904,
            8197325908,
            8197325909,
            1246177762,
            1246177746,
            1246335904
        ],
        "tags": {
            "amenity": "biergarten"
        }
    },
    {
        "type": "way",
        "id": 881417364,
        "nodes": [
            4309353487,
            8197438147,
            8197438148,
            4309353486,
            4309353487
        ],
        "tags": {
            "building": "yes",
            "name": "Edgewood Smokes",
            "shop": "tobacco"
        }
    },
    {
        "type": "way",
        "id": 881417365,
        "nodes": [
            8197438147,
            8197438149,
            8197438150,
            8197438148,
            8197438147
        ],
        "tags": {
            "building": "yes",
            "name": "Stoney's",
            "shop": "hairdresser"
        }
    },
    {
        "type": "way",
        "id": 881635233,
        "nodes": [
            8199154377,
            8199154348,
            8199154384,
            8199154383,
            2271266398,
            2271266413,
            2271266465,
            2271266371,
            2271266430,
            8199154394,
            2271266397,
            2271266435,
            8199154382,
            8199154393,
            8199154381,
            8199154380,
            8199154377
        ],
        "tags": {
            "garden:type": "community",
            "leisure": "garden"
        }
    },
    {
        "type": "way",
        "id": 882007072,
        "nodes": [
            408347380,
            408347381,
            6016005644,
            6016005646,
            408347380
        ],
        "tags": {
            "amenity": "school",
            "name": "Howard Middle School"
        }
    },
    {
        "type": "way",
        "id": 882007092,
        "nodes": [
            8228562412,
            4650774037,
            2271259086,
            8197325872,
            2271261939,
            2271261951,
            2271261938,
            358688872,
            8228562412
        ],
        "tags": {
            "amenity": "school",
            "ele": "309",
            "gnis:feature_id": "316132",
            "name": "Hope-Hill Elementary School",
            "old_name": "John Hope School"
        }
    },
    {
        "type": "way",
        "id": 884859562,
        "nodes": [
            8228616117,
            8228616118,
            8228616119,
            8228616120,
            8228616117
        ],
        "tags": {
            "leisure": "park",
            "name": "Susan K. May Park"
        }
    },
    {
        "type": "way",
        "id": 989759871,
        "nodes": [
            9147054825,
            9147054826,
            9147054827,
            9147054828,
            9147054825
        ],
        "tags": {
            "leisure": "pitch",
            "sport": "soccer"
        }
    },
    {
        "type": "way",
        "id": 1019325143,
        "nodes": [
            9401540450,
            9401540451,
            9401540452,
            9401540453,
            9401540450
        ],
        "tags": {
            "amenity": "school",
            "name": "The New School of Atlanta"
        }
    },
    {
        "type": "way",
        "id": 1110422299,
        "nodes": [
            5006641280,
            10158229561,
            3640986675,
            3640986674,
            3640986673,
            3640986672,
            10158229562,
            10158229563,
            10158229564,
            10158229565,
            10158229566,
            10158229567,
            10158229568,
            5006641280
        ],
        "tags": {
            "amenity": "university",
            "name": "Georgia State University"
        }
    },
    {
        "type": "way",
        "id": 1206771331,
        "nodes": [
            11182424194,
            11182424195,
            11182424196,
            11182424197,
            11182424194
        ],
        "tags": {
            "leisure": "pitch"
        }
    },
    {
        "type": "way",
        "id": 1206771332,
        "nodes": [
            11182424198,
            11182424199,
            11182424200,
            11182424201,
            11182424202,
            11182424203,
            11182424204,
            11182424205,
            11182424206,
            11182424207,
            11182424198
        ],
        "tags": {
            "leisure": "playground"
        }
    },
    {
        "type": "way",
        "id": 1206771337,
        "nodes": [
            11182424871,
            11182424872,
            11182424873,
            11182424874,
            11182424875,
            11182424876,
            11182424871
        ],
        "tags": {
            "leisure": "playground"
        }
    },
    {
        "type": "way",
        "id": 1209247165,
        "nodes": [
            11203957472,
            11203957473,
            11203957474,
            11203957475,
            11203957472
        ],
        "tags": {
            "leisure": "playground"
        }
    },
    {
        "type": "node",
        "id": 8026767357,
        "lat": 33.745574,
        "lon": -84.3847042
    },
    {
        "type": "node",
        "id": 8026767360,
        "lat": 33.7443008,
        "lon": -84.3844595
    },
    {
        "type": "node",
        "id": 8026767361,
        "lat": 33.7443168,
        "lon": -84.3860408
    },
    {
        "type": "node",
        "id": 8026767362,
        "lat": 33.7438021,
        "lon": -84.3848975
    },
    {
        "type": "node",
        "id": 8026767363,
        "lat": 33.7438831,
        "lon": -84.384997
    },
    {
        "type": "node",
        "id": 8026767364,
        "lat": 33.7440526,
        "lon": -84.3854872
    },
    {
        "type": "node",
        "id": 8026767365,
        "lat": 33.7440563,
        "lon": -84.3854981
    },
    {
        "type": "node",
        "id": 8026767366,
        "lat": 33.7443396,
        "lon": -84.386208
    },
    {
        "type": "node",
        "id": 2586579971,
        "lat": 33.7535292,
        "lon": -84.3875944
    },
    {
        "type": "node",
        "id": 2586579989,
        "lat": 33.7536338,
        "lon": -84.3877523
    },
    {
        "type": "node",
        "id": 2586580003,
        "lat": 33.7537266,
        "lon": -84.3885416
    },
    {
        "type": "node",
        "id": 2586580065,
        "lat": 33.753914,
        "lon": -84.3888899
    },
    {
        "type": "node",
        "id": 2586580067,
        "lat": 33.7537441,
        "lon": -84.3886066
    },
    {
        "type": "node",
        "id": 2758435589,
        "lat": 33.753398,
        "lon": -84.3879331
    },
    {
        "type": "node",
        "id": 3954061747,
        "lat": 33.752843,
        "lon": -84.3880009
    },
    {
        "type": "node",
        "id": 4813875849,
        "lat": 33.7508672,
        "lon": -84.3864464
    },
    {
        "type": "node",
        "id": 4813875850,
        "lat": 33.7510821,
        "lon": -84.3862258
    },
    {
        "type": "node",
        "id": 4813875851,
        "lat": 33.7509713,
        "lon": -84.3860686
    },
    {
        "type": "node",
        "id": 4813875852,
        "lat": 33.7507563,
        "lon": -84.3862902
    },
    {
        "type": "node",
        "id": 5006641309,
        "lat": 33.7534642,
        "lon": -84.3874719
    },
    {
        "type": "node",
        "id": 5006641314,
        "lat": 33.7523543,
        "lon": -84.3884476
    },
    {
        "type": "node",
        "id": 5006641317,
        "lat": 33.7519832,
        "lon": -84.3879562
    },
    {
        "type": "node",
        "id": 5006641318,
        "lat": 33.7516298,
        "lon": -84.3874656
    },
    {
        "type": "node",
        "id": 5006641319,
        "lat": 33.7507208,
        "lon": -84.3862803
    },
    {
        "type": "node",
        "id": 5006641320,
        "lat": 33.7498445,
        "lon": -84.3849603
    },
    {
        "type": "node",
        "id": 5781330469,
        "lat": 33.7514723,
        "lon": -84.3873086
    },
    {
        "type": "node",
        "id": 5781330475,
        "lat": 33.7539222,
        "lon": -84.3889046
    },
    {
        "type": "node",
        "id": 5781330478,
        "lat": 33.7531238,
        "lon": -84.3877656
    },
    {
        "type": "node",
        "id": 5781330482,
        "lat": 33.7526014,
        "lon": -84.3841563
    },
    {
        "type": "node",
        "id": 6854507249,
        "lat": 33.7539454,
        "lon": -84.3889493
    },
    {
        "type": "node",
        "id": 7285629677,
        "lat": 33.7523534,
        "lon": -84.385878
    },
    {
        "type": "node",
        "id": 7285629678,
        "lat": 33.7523115,
        "lon": -84.3858192
    },
    {
        "type": "node",
        "id": 7285629679,
        "lat": 33.752188,
        "lon": -84.3859498
    },
    {
        "type": "node",
        "id": 7285629680,
        "lat": 33.7522294,
        "lon": -84.3860078
    },
    {
        "type": "node",
        "id": 7494878163,
        "lat": 33.7535844,
        "lon": -84.3853458
    },
    {
        "type": "node",
        "id": 7501041573,
        "lat": 33.7529485,
        "lon": -84.3880782
    },
    {
        "type": "node",
        "id": 7502068764,
        "lat": 33.7503052,
        "lon": -84.385651
    },
    {
        "type": "node",
        "id": 7502068765,
        "lat": 33.7501001,
        "lon": -84.3853377
    },
    {
        "type": "node",
        "id": 7502120208,
        "lat": 33.7542626,
        "lon": -84.384653
    },
    {
        "type": "node",
        "id": 7502147679,
        "lat": 33.7535974,
        "lon": -84.3853862
    },
    {
        "type": "node",
        "id": 7502147680,
        "lat": 33.7536974,
        "lon": -84.3854355
    },
    {
        "type": "node",
        "id": 7502147681,
        "lat": 33.7540527,
        "lon": -84.3859222
    },
    {
        "type": "node",
        "id": 7502147682,
        "lat": 33.7542328,
        "lon": -84.3861682
    },
    {
        "type": "node",
        "id": 7502147683,
        "lat": 33.7542488,
        "lon": -84.3861855
    },
    {
        "type": "node",
        "id": 7502147685,
        "lat": 33.7542659,
        "lon": -84.3861951
    },
    {
        "type": "node",
        "id": 7502147686,
        "lat": 33.754281,
        "lon": -84.3861991
    },
    {
        "type": "node",
        "id": 7502147687,
        "lat": 33.754316,
        "lon": -84.3862019
    },
    {
        "type": "node",
        "id": 7502147688,
        "lat": 33.7543287,
        "lon": -84.386201
    },
    {
        "type": "node",
        "id": 7502147695,
        "lat": 33.7543103,
        "lon": -84.384652
    },
    {
        "type": "node",
        "id": 7502147696,
        "lat": 33.7542873,
        "lon": -84.384649
    },
    {
        "type": "node",
        "id": 7847443278,
        "lat": 33.7517131,
        "lon": -84.3875812
    },
    {
        "type": "node",
        "id": 8109665638,
        "lat": 33.753544,
        "lon": -84.387583
    },
    {
        "type": "node",
        "id": 316634894,
        "lat": 33.7305069,
        "lon": -84.3735479
    },
    {
        "type": "node",
        "id": 561012553,
        "lat": 33.7302738,
        "lon": -84.3730079
    },
    {
        "type": "node",
        "id": 561037296,
        "lat": 33.7313906,
        "lon": -84.373549
    },
    {
        "type": "node",
        "id": 6903520738,
        "lat": 33.7302777,
        "lon": -84.3733176
    },
    {
        "type": "node",
        "id": 6903520740,
        "lat": 33.7338009,
        "lon": -84.3735519
    },
    {
        "type": "node",
        "id": 6939547543,
        "lat": 33.7304479,
        "lon": -84.3735095
    },
    {
        "type": "node",
        "id": 6939547544,
        "lat": 33.731474,
        "lon": -84.3735491
    },
    {
        "type": "node",
        "id": 6939547545,
        "lat": 33.7312992,
        "lon": -84.3735489
    },
    {
        "type": "node",
        "id": 6939547546,
        "lat": 33.7339756,
        "lon": -84.3735521
    },
    {
        "type": "node",
        "id": 6939547547,
        "lat": 33.7338868,
        "lon": -84.373552
    },
    {
        "type": "node",
        "id": 6939547548,
        "lat": 33.7339209,
        "lon": -84.3735521
    },
    {
        "type": "node",
        "id": 6939547549,
        "lat": 33.7340321,
        "lon": -84.3735522
    },
    {
        "type": "node",
        "id": 6939547550,
        "lat": 33.7341169,
        "lon": -84.3735523
    },
    {
        "type": "node",
        "id": 6939547551,
        "lat": 33.7342869,
        "lon": -84.3735525
    },
    {
        "type": "node",
        "id": 6939547552,
        "lat": 33.7341757,
        "lon": -84.3735524
    },
    {
        "type": "node",
        "id": 6939547553,
        "lat": 33.7342195,
        "lon": -84.3735524
    },
    {
        "type": "node",
        "id": 6939548698,
        "lat": 33.7324441,
        "lon": -84.3735503
    },
    {
        "type": "node",
        "id": 9664352541,
        "lat": 33.733641,
        "lon": -84.3735517
    },
    {
        "type": "node",
        "id": 9664352542,
        "lat": 33.7323592,
        "lon": -84.3735502
    },
    {
        "type": "node",
        "id": 9664352543,
        "lat": 33.7312304,
        "lon": -84.3735488
    },
    {
        "type": "node",
        "id": 6903520743,
        "lat": 33.7386924,
        "lon": -84.3735579
    },
    {
        "type": "node",
        "id": 6903520746,
        "lat": 33.7389879,
        "lon": -84.3735552
    },
    {
        "type": "node",
        "id": 6903520754,
        "lat": 33.7376906,
        "lon": -84.3735597
    },
    {
        "type": "node",
        "id": 6939547554,
        "lat": 33.7366716,
        "lon": -84.3735616
    },
    {
        "type": "node",
        "id": 6939547555,
        "lat": 33.7365666,
        "lon": -84.3735614
    },
    {
        "type": "node",
        "id": 6939547556,
        "lat": 33.7363151,
        "lon": -84.3735659
    },
    {
        "type": "node",
        "id": 6939547557,
        "lat": 33.7365124,
        "lon": -84.3735614
    },
    {
        "type": "node",
        "id": 6939547583,
        "lat": 33.7411206,
        "lon": -84.3735492
    },
    {
        "type": "node",
        "id": 6939548688,
        "lat": 33.7399286,
        "lon": -84.3735525
    },
    {
        "type": "node",
        "id": 6939548719,
        "lat": 33.7347911,
        "lon": -84.3735558
    },
    {
        "type": "node",
        "id": 6939548724,
        "lat": 33.7359529,
        "lon": -84.3735635
    },
    {
        "type": "node",
        "id": 6939548992,
        "lat": 33.7388426,
        "lon": -84.3735565
    },
    {
        "type": "node",
        "id": 9664352540,
        "lat": 33.7347568,
        "lon": -84.3735556
    },
    {
        "type": "node",
        "id": 316634893,
        "lat": 33.730347,
        "lon": -84.3684075
    },
    {
        "type": "node",
        "id": 561012677,
        "lat": 33.7302282,
        "lon": -84.3693838
    },
    {
        "type": "node",
        "id": 6939547528,
        "lat": 33.7302377,
        "lon": -84.3684542
    },
    {
        "type": "node",
        "id": 6939547529,
        "lat": 33.7302168,
        "lon": -84.3684791
    },
    {
        "type": "node",
        "id": 6939547530,
        "lat": 33.7302307,
        "lon": -84.3695868
    },
    {
        "type": "node",
        "id": 6939547531,
        "lat": 33.7302424,
        "lon": -84.3705163
    },
    {
        "type": "node",
        "id": 6939547532,
        "lat": 33.7302454,
        "lon": -84.3707496
    },
    {
        "type": "node",
        "id": 6939547533,
        "lat": 33.7302432,
        "lon": -84.3705801
    },
    {
        "type": "node",
        "id": 6939547534,
        "lat": 33.7302443,
        "lon": -84.3706664
    },
    {
        "type": "node",
        "id": 6939547535,
        "lat": 33.7302829,
        "lon": -84.3684349
    },
    {
        "type": "node",
        "id": 6939547574,
        "lat": 33.7302416,
        "lon": -84.3704541
    },
    {
        "type": "node",
        "id": 7112602509,
        "lat": 33.7305066,
        "lon": -84.3684044
    },
    {
        "type": "node",
        "id": 7112602514,
        "lat": 33.7322342,
        "lon": -84.3683713
    },
    {
        "type": "node",
        "id": 7112602517,
        "lat": 33.7340255,
        "lon": -84.3683368
    },
    {
        "type": "node",
        "id": 7538777159,
        "lat": 33.7341512,
        "lon": -84.368335
    },
    {
        "type": "node",
        "id": 7538785191,
        "lat": 33.7346515,
        "lon": -84.3683248
    },
    {
        "type": "node",
        "id": 7538785210,
        "lat": 33.7340869,
        "lon": -84.3683362
    },
    {
        "type": "node",
        "id": 8691149271,
        "lat": 33.7329175,
        "lon": -84.3683581
    },
    {
        "type": "node",
        "id": 8691149274,
        "lat": 33.7329815,
        "lon": -84.3683569
    },
    {
        "type": "node",
        "id": 316634891,
        "lat": 33.7370734,
        "lon": -84.3699686
    },
    {
        "type": "node",
        "id": 316634892,
        "lat": 33.7370176,
        "lon": -84.3682794
    },
    {
        "type": "node",
        "id": 316636111,
        "lat": 33.7371188,
        "lon": -84.3699677
    },
    {
        "type": "node",
        "id": 6939547521,
        "lat": 33.7411068,
        "lon": -84.3698868
    },
    {
        "type": "node",
        "id": 6939547522,
        "lat": 33.7410052,
        "lon": -84.3698887
    },
    {
        "type": "node",
        "id": 6939547523,
        "lat": 33.7410449,
        "lon": -84.369888
    },
    {
        "type": "node",
        "id": 6939547524,
        "lat": 33.7371006,
        "lon": -84.3697655
    },
    {
        "type": "node",
        "id": 6939547525,
        "lat": 33.7370686,
        "lon": -84.3683262
    },
    {
        "type": "node",
        "id": 6939547526,
        "lat": 33.7370801,
        "lon": -84.3683789
    },
    {
        "type": "node",
        "id": 6939547527,
        "lat": 33.7370903,
        "lon": -84.3684385
    },
    {
        "type": "node",
        "id": 6939547537,
        "lat": 33.7370519,
        "lon": -84.3683028
    },
    {
        "type": "node",
        "id": 7104817626,
        "lat": 33.7357708,
        "lon": -84.3683033
    },
    {
        "type": "node",
        "id": 7104817628,
        "lat": 33.7355885,
        "lon": -84.3683068
    },
    {
        "type": "node",
        "id": 7105216036,
        "lat": 33.7367132,
        "lon": -84.3682852
    },
    {
        "type": "node",
        "id": 7105320671,
        "lat": 33.7372358,
        "lon": -84.3699653
    },
    {
        "type": "node",
        "id": 7105320673,
        "lat": 33.7386477,
        "lon": -84.3699366
    },
    {
        "type": "node",
        "id": 7105320681,
        "lat": 33.739764,
        "lon": -84.3699139
    },
    {
        "type": "node",
        "id": 407912441,
        "lat": 33.7437235,
        "lon": -84.3814934
    },
    {
        "type": "node",
        "id": 2759656225,
        "lat": 33.7470392,
        "lon": -84.3790139
    },
    {
        "type": "node",
        "id": 2759656227,
        "lat": 33.7470401,
        "lon": -84.3790796
    },
    {
        "type": "node",
        "id": 2759656241,
        "lat": 33.7471722,
        "lon": -84.3789086
    },
    {
        "type": "node",
        "id": 2759656249,
        "lat": 33.7470791,
        "lon": -84.3789104
    },
    {
        "type": "node",
        "id": 2759656251,
        "lat": 33.7470804,
        "lon": -84.3790131
    },
    {
        "type": "node",
        "id": 2759656323,
        "lat": 33.7471744,
        "lon": -84.3790771
    },
    {
        "type": "node",
        "id": 7494806906,
        "lat": 33.7455011,
        "lon": -84.3812291
    },
    {
        "type": "node",
        "id": 7494806907,
        "lat": 33.7455017,
        "lon": -84.3813835
    },
    {
        "type": "node",
        "id": 7494806908,
        "lat": 33.7452809,
        "lon": -84.3813847
    },
    {
        "type": "node",
        "id": 7494806909,
        "lat": 33.7452803,
        "lon": -84.3812303
    },
    {
        "type": "node",
        "id": 7494806910,
        "lat": 33.7455021,
        "lon": -84.3810628
    },
    {
        "type": "node",
        "id": 7494806911,
        "lat": 33.7452791,
        "lon": -84.3810611
    },
    {
        "type": "node",
        "id": 7494806912,
        "lat": 33.7452782,
        "lon": -84.3812175
    },
    {
        "type": "node",
        "id": 7494806913,
        "lat": 33.7455013,
        "lon": -84.3812192
    },
    {
        "type": "node",
        "id": 7494806914,
        "lat": 33.7450718,
        "lon": -84.3806831
    },
    {
        "type": "node",
        "id": 7494806915,
        "lat": 33.7450715,
        "lon": -84.3808022
    },
    {
        "type": "node",
        "id": 7494806916,
        "lat": 33.744854,
        "lon": -84.3808013
    },
    {
        "type": "node",
        "id": 7494806917,
        "lat": 33.7448543,
        "lon": -84.3806822
    },
    {
        "type": "node",
        "id": 7494806921,
        "lat": 33.7439989,
        "lon": -84.3813674
    },
    {
        "type": "node",
        "id": 7494806922,
        "lat": 33.7439291,
        "lon": -84.3806536
    },
    {
        "type": "node",
        "id": 7494806923,
        "lat": 33.7439709,
        "lon": -84.3806208
    },
    {
        "type": "node",
        "id": 7494806924,
        "lat": 33.7440867,
        "lon": -84.3806111
    },
    {
        "type": "node",
        "id": 7494806925,
        "lat": 33.7442009,
        "lon": -84.3806343
    },
    {
        "type": "node",
        "id": 7494806926,
        "lat": 33.7443343,
        "lon": -84.3806981
    },
    {
        "type": "node",
        "id": 7494806927,
        "lat": 33.7444871,
        "lon": -84.380847
    },
    {
        "type": "node",
        "id": 7494806928,
        "lat": 33.7445756,
        "lon": -84.3810307
    },
    {
        "type": "node",
        "id": 7494806929,
        "lat": 33.7446109,
        "lon": -84.3812067
    },
    {
        "type": "node",
        "id": 7494806930,
        "lat": 33.7446238,
        "lon": -84.3813576
    },
    {
        "type": "node",
        "id": 7494806931,
        "lat": 33.7444156,
        "lon": -84.3807552
    },
    {
        "type": "node",
        "id": 7494806932,
        "lat": 33.744541,
        "lon": -84.3809253
    },
    {
        "type": "node",
        "id": 7494806933,
        "lat": 33.7445949,
        "lon": -84.3811149
    },
    {
        "type": "node",
        "id": 8026766737,
        "lat": 33.745017,
        "lon": -84.3810436
    },
    {
        "type": "node",
        "id": 8026766738,
        "lat": 33.7450167,
        "lon": -84.3809959
    },
    {
        "type": "node",
        "id": 8026766739,
        "lat": 33.7450011,
        "lon": -84.3813167
    },
    {
        "type": "node",
        "id": 8026766740,
        "lat": 33.7449863,
        "lon": -84.3813396
    },
    {
        "type": "node",
        "id": 8026766741,
        "lat": 33.7449708,
        "lon": -84.381355
    },
    {
        "type": "node",
        "id": 8026766742,
        "lat": 33.7449615,
        "lon": -84.3813593
    },
    {
        "type": "node",
        "id": 8026766743,
        "lat": 33.7449477,
        "lon": -84.3813593
    },
    {
        "type": "node",
        "id": 8026766744,
        "lat": 33.7449322,
        "lon": -84.3813604
    },
    {
        "type": "node",
        "id": 8026766745,
        "lat": 33.7448429,
        "lon": -84.3812537
    },
    {
        "type": "node",
        "id": 8026766746,
        "lat": 33.7448794,
        "lon": -84.3812447
    },
    {
        "type": "node",
        "id": 8026766747,
        "lat": 33.7449052,
        "lon": -84.3812441
    },
    {
        "type": "node",
        "id": 8026766748,
        "lat": 33.7449313,
        "lon": -84.3812281
    },
    {
        "type": "node",
        "id": 8026766749,
        "lat": 33.7449539,
        "lon": -84.3811999
    },
    {
        "type": "node",
        "id": 8026766750,
        "lat": 33.7449619,
        "lon": -84.3811721
    },
    {
        "type": "node",
        "id": 8026766751,
        "lat": 33.7449624,
        "lon": -84.3811433
    },
    {
        "type": "node",
        "id": 8026766752,
        "lat": 33.7449548,
        "lon": -84.3811172
    },
    {
        "type": "node",
        "id": 8026766753,
        "lat": 33.7449402,
        "lon": -84.3810943
    },
    {
        "type": "node",
        "id": 8026766754,
        "lat": 33.7449207,
        "lon": -84.3810762
    },
    {
        "type": "node",
        "id": 8026766755,
        "lat": 33.7448919,
        "lon": -84.3810703
    },
    {
        "type": "node",
        "id": 8026766756,
        "lat": 33.7448688,
        "lon": -84.3810751
    },
    {
        "type": "node",
        "id": 8026766757,
        "lat": 33.7448515,
        "lon": -84.3810703
    },
    {
        "type": "node",
        "id": 8026766758,
        "lat": 33.7448394,
        "lon": -84.3809824
    },
    {
        "type": "node",
        "id": 8026766759,
        "lat": 33.7448668,
        "lon": -84.3809466
    },
    {
        "type": "node",
        "id": 8026766760,
        "lat": 33.7449142,
        "lon": -84.3809292
    },
    {
        "type": "node",
        "id": 8026766761,
        "lat": 33.744951,
        "lon": -84.3809348
    },
    {
        "type": "node",
        "id": 8026766762,
        "lat": 33.744998,
        "lon": -84.3809626
    },
    {
        "type": "node",
        "id": 8026766763,
        "lat": 33.7450215,
        "lon": -84.3810186
    },
    {
        "type": "node",
        "id": 8026766764,
        "lat": 33.7450125,
        "lon": -84.3810662
    },
    {
        "type": "node",
        "id": 8026766765,
        "lat": 33.7450004,
        "lon": -84.3811053
    },
    {
        "type": "node",
        "id": 8026766766,
        "lat": 33.7449945,
        "lon": -84.381142
    },
    {
        "type": "node",
        "id": 8026766767,
        "lat": 33.7449941,
        "lon": -84.381191
    },
    {
        "type": "node",
        "id": 8026766768,
        "lat": 33.7449988,
        "lon": -84.3812301
    },
    {
        "type": "node",
        "id": 8026766769,
        "lat": 33.7450043,
        "lon": -84.3812641
    },
    {
        "type": "node",
        "id": 8026766770,
        "lat": 33.7450076,
        "lon": -84.3812914
    },
    {
        "type": "node",
        "id": 8026766771,
        "lat": 33.7449434,
        "lon": -84.3812168
    },
    {
        "type": "node",
        "id": 8026766823,
        "lat": 33.7449621,
        "lon": -84.3811616
    },
    {
        "type": "node",
        "id": 8026766826,
        "lat": 33.7449623,
        "lon": -84.3811486
    },
    {
        "type": "node",
        "id": 8026766850,
        "lat": 33.7448383,
        "lon": -84.3810545
    },
    {
        "type": "node",
        "id": 8026766851,
        "lat": 33.7448282,
        "lon": -84.3810171
    },
    {
        "type": "node",
        "id": 8026766853,
        "lat": 33.7449123,
        "lon": -84.3813623
    },
    {
        "type": "node",
        "id": 8026766854,
        "lat": 33.7449007,
        "lon": -84.3813684
    },
    {
        "type": "node",
        "id": 8026766855,
        "lat": 33.7448692,
        "lon": -84.3813809
    },
    {
        "type": "node",
        "id": 8026766856,
        "lat": 33.7448561,
        "lon": -84.3813792
    },
    {
        "type": "node",
        "id": 8026766857,
        "lat": 33.7448395,
        "lon": -84.3813709
    },
    {
        "type": "node",
        "id": 8026766858,
        "lat": 33.7448298,
        "lon": -84.3813605
    },
    {
        "type": "node",
        "id": 8026766859,
        "lat": 33.7448194,
        "lon": -84.381341
    },
    {
        "type": "node",
        "id": 8026766860,
        "lat": 33.7448149,
        "lon": -84.3813219
    },
    {
        "type": "node",
        "id": 8026766861,
        "lat": 33.7448173,
        "lon": -84.3812932
    },
    {
        "type": "node",
        "id": 8026766862,
        "lat": 33.7448229,
        "lon": -84.3812761
    },
    {
        "type": "node",
        "id": 8026766863,
        "lat": 33.7448336,
        "lon": -84.3812616
    },
    {
        "type": "node",
        "id": 8026766864,
        "lat": 33.7456945,
        "lon": -84.3805446
    },
    {
        "type": "node",
        "id": 8026766867,
        "lat": 33.7438782,
        "lon": -84.380561
    },
    {
        "type": "node",
        "id": 8026766870,
        "lat": 33.7456901,
        "lon": -84.3814739
    },
    {
        "type": "node",
        "id": 8026766871,
        "lat": 33.7468162,
        "lon": -84.3814859
    },
    {
        "type": "node",
        "id": 8026766893,
        "lat": 33.7464236,
        "lon": -84.3805267
    },
    {
        "type": "node",
        "id": 8026766900,
        "lat": 33.746796,
        "lon": -84.3805341
    },
    {
        "type": "node",
        "id": 8026766901,
        "lat": 33.7439557,
        "lon": -84.3813131
    },
    {
        "type": "node",
        "id": 8026766977,
        "lat": 33.7463082,
        "lon": -84.3808078
    },
    {
        "type": "node",
        "id": 8026766978,
        "lat": 33.7463077,
        "lon": -84.3806093
    },
    {
        "type": "node",
        "id": 8026766979,
        "lat": 33.7464179,
        "lon": -84.3806089
    },
    {
        "type": "node",
        "id": 8026766980,
        "lat": 33.7464184,
        "lon": -84.3808074
    },
    {
        "type": "node",
        "id": 8026767191,
        "lat": 33.7437205,
        "lon": -84.3838532
    },
    {
        "type": "node",
        "id": 8026767353,
        "lat": 33.7444485,
        "lon": -84.3838854
    },
    {
        "type": "node",
        "id": 8026767358,
        "lat": 33.7455604,
        "lon": -84.3839185
    },
    {
        "type": "node",
        "id": 8026767359,
        "lat": 33.7443137,
        "lon": -84.3838487
    },
    {
        "type": "node",
        "id": 9147054827,
        "lat": 33.7475301,
        "lon": -84.3814737
    },
    {
        "type": "node",
        "id": 9147054828,
        "lat": 33.7475216,
        "lon": -84.3808161
    },
    {
        "type": "node",
        "id": 316634887,
        "lat": 33.7415512,
        "lon": -84.373548
    },