[{"osm_id":532001411,"name":"1er Mai","lat":36.7601908,"lon":3.0566104,"pop":14773.6377124886,"city":"Algiers","country":"Algeria","distanceToCenter":625.5529738298},{"osm_id":3589518209,"name":"Ain Na\u00e2dja","lat":36.7057374,"lon":3.0822858,"pop":13279.4386905508,"city":"Algiers","country":"Algeria","distanceToCenter":6975.4756210854},{"osm_id":532001427,"name":"A\u00efssat Idir","lat":36.7568509,"lon":3.0617531,"pop":11597.5535017414,"city":"Algiers","country":"Algeria","distanceToCenter":1212.437128507},{"osm_id":966535048,"name":"Ali Boumendjel","lat":36.7802085,"lon":3.0586052,"pop":11797.7892515964,"city":"Algiers","country":"Algeria","distanceToCenter":2031.6121637589},{"osm_id":6673464969,"name":"Bachdjarah - Tennis","lat":36.7182182,"lon":3.1105878,"pop":19251.6213227757,"city":"Algiers","country":"Algeria","distanceToCenter":7312.8955261948},{"osm_id":6673464972,"name":"Bachdjerrah","lat":36.7218062,"lon":3.118274,"pop":21905.5123403496,"city":"Algiers","country":"Algeria","distanceToCenter":7579.2239255284},{"osm_id":532001496,"name":"Cit\u00e9 Amirouche","lat":36.737895,"lon":3.0944401,"pop":5951.8297456632,"city":"Algiers","country":"Algeria","distanceToCenter":4807.4100015627},{"osm_id":6673464971,"name":"El Harrach Gare","lat":36.7220937,"lon":3.1317268,"pop":12687.3303905957,"city":"Algiers","country":"Algeria","distanceToCenter":8546.6461760327},{"osm_id":6673464970,"name":"El-Harrach Centre","lat":36.7220024,"lon":3.1371632,"pop":4262.0820934643,"city":"Algiers","country":"Algeria","distanceToCenter":8965.2558764297},{"osm_id":5571463482,"name":"Ha\u00ef El Badr","lat":36.7254312,"lon":3.1022698,"pop":16492.9228850104,"city":"Algiers","country":"Algeria","distanceToCenter":6224.1415222772},{"osm_id":532001439,"name":"Hamma","lat":36.752896,"lon":3.0665223,"pop":8190.7976843328,"city":"Algiers","country":"Algeria","distanceToCenter":1816.427015489},{"osm_id":532001464,"name":"Jardin d'essai","lat":36.7466634,"lon":3.0727322,"pop":10429.611201829,"city":"Algiers","country":"Algeria","distanceToCenter":2688.5249172707},{"osm_id":3603933963,"name":"Khelifa Boukhalfa","lat":36.7662321,"lon":3.0536627,"pop":7523.976725794,"city":"Algiers","country":"Algeria","distanceToCenter":442.4086084479},{"osm_id":532001481,"name":"Les fusill\u00e9s","lat":36.7421437,"lon":3.0831356,"pop":14961.6453078719,"city":"Algiers","country":"Algeria","distanceToCenter":3719.1786857094},{"osm_id":3590827124,"name":"Mer et Soleil","lat":36.7335722,"lon":3.1009505,"pop":7478.2320711173,"city":"Algiers","country":"Algeria","distanceToCenter":5559.2591103315},{"osm_id":3348151668,"name":"Mohamed Boudiaf","lat":36.6963648,"lon":3.0763969,"pop":6151.4145553357,"city":"Algiers","country":"Algeria","distanceToCenter":7768.5838506337},{"osm_id":966535035,"name":"Place des Martyrs","lat":36.785489,"lon":3.0623351,"pop":16217.4396090282,"city":"Algiers","country":"Algeria","distanceToCenter":2700.0542736518},{"osm_id":3589500559,"name":"Station des Ateliers","lat":36.71552,"lon":3.1008295,"pop":11089.0455260323,"city":"Algiers","country":"Algeria","distanceToCenter":6929.9462625082},{"osm_id":532001382,"name":"Tafourah - Grande Poste","lat":36.7720017,"lon":3.0581852,"pop":14300.4729531152,"city":"Algiers","country":"Algeria","distanceToCenter":1198.4390924906},{"osm_id":2208811165,"name":"Gu\u00e9 de Constantine","lat":36.7095843,"lon":3.0902229,"pop":9402.5635519025,"city":"Algiers","country":"Algeria","distanceToCenter":6919.348766062},{"osm_id":3475502801,"name":"9 de Julio","lat":-34.6044292,"lon":-58.3802644,"pop":12359.4591702073,"city":"Buenos Aires","country":"Argentina","distanceToCenter":1592.003277784},{"osm_id":3449220575,"name":"Acoyte","lat":-34.6181052,"lon":-58.4359552,"pop":21476.9269859149,"city":"Buenos Aires","country":"Argentina","distanceToCenter":3923.8440796962},{"osm_id":5272846982,"name":"Ag\u00fcero","lat":-34.5917097,"lon":-58.4070715,"pop":20124.6368949899,"city":"Buenos Aires","country":"Argentina","distanceToCenter":1485.6408848161},{"osm_id":3449341473,"name":"Alberti","lat":-34.6098814,"lon":-58.4008551,"pop":21895.1781481415,"city":"Buenos Aires","country":"Argentina","distanceToCenter":876.3327297729},{"osm_id":5271314476,"name":"\u00c1ngel Gallardo","lat":-34.6021406,"lon":-58.4313892,"pop":16411.984222975,"city":"Buenos Aires","country":"Argentina","distanceToCenter":3102.0013933865},{"osm_id":310353386,"name":"Avenida de Mayo","lat":-34.6089745,"lon":-58.3806319,"pop":11871.619986368,"city":"Buenos Aires","country":"Argentina","distanceToCenter":1703.4202698082},{"osm_id":256241985,"name":"Avenida La Plata","lat":-34.626968,"lon":-58.426404,"pop":20740.4380723948,"city":"Buenos Aires","country":"Argentina","distanceToCenter":3794.5637271564},{"osm_id":5206871928,"name":"Belgrano","lat":-34.612958,"lon":-58.3776468,"pop":10554.6828424694,"city":"Buenos Aires","country":"Argentina","distanceToCenter":2157.231598443},{"osm_id":256242013,"name":"Boedo","lat":-34.6254799,"lon":-58.4161163,"pop":20563.8463262447,"city":"Buenos Aires","country":"Argentina","distanceToCenter":3071.1026329414},{"osm_id":5206871927,"name":"Bol\u00edvar","lat":-34.6097193,"lon":-58.374119,"pop":9910.1600172052,"city":"Buenos Aires","country":"Argentina","distanceToCenter":2285.4892302062},{"osm_id":3475502523,"name":"Bulnes","lat":-34.588251,"lon":-58.4112129,"pop":16493.4106468207,"city":"Buenos Aires","country":"Argentina","distanceToCenter":2021.3567860717},{"osm_id":3475502524,"name":"Callao - Raquel Liberman(D)","lat":-34.5996372,"lon":-58.3926756,"pop":20382.4027350924,"city":"Buenos Aires","country":"Argentina","distanceToCenter":544.3461718737},{"osm_id":4829965194,"name":"Callao (B)","lat":-34.604451,"lon":-58.3927552,"pop":18108.4349874022,"city":"Buenos Aires","country":"Argentina","distanceToCenter":485.43904872},{"osm_id":3449220576,"name":"Carabobo","lat":-34.6264544,"lon":-58.4561066,"pop":15154.4468723127,"city":"Buenos Aires","country":"Argentina","distanceToCenter":5988.2545305929},{"osm_id":5271314478,"name":"Carlos Gardel","lat":-34.6040822,"lon":-58.4113533,"pop":21812.7704174162,"city":"Buenos Aires","country":"Argentina","distanceToCenter":1280.0704531696},{"osm_id":5267306822,"name":"Carlos Pellegrini","lat":-34.6036824,"lon":-58.3812708,"pop":12817.995058943,"city":"Buenos Aires","country":"Argentina","distanceToCenter":1491.1878882829},{"osm_id":3962440379,"name":"Caseros","lat":-34.6354349,"lon":-58.3990398,"pop":10638.0828268941,"city":"Buenos Aires","country":"Argentina","distanceToCenter":3664.9034304641},{"osm_id":3449220577,"name":"Castro Barros","lat":-34.6117062,"lon":-58.4215177,"pop":21296.9405808172,"city":"Buenos Aires","country":"Argentina","distanceToCenter":2424.7988959312},{"osm_id":1085915755,"name":"Catalinas","lat":-34.596514,"lon":-58.3720955,"pop":8627.8714495541,"city":"Buenos Aires","country":"Argentina","distanceToCenter":2418.6435086106},{"osm_id":3475502526,"name":"Catedral","lat":-34.60757,"lon":-58.3742905,"pop":10142.9734248698,"city":"Buenos Aires","country":"Argentina","distanceToCenter":2197.7410898221},{"osm_id":3449235011,"name":"Congreso","lat":-34.6092208,"lon":-58.3925644,"pop":16987.7568299436,"city":"Buenos Aires","country":"Argentina","distanceToCenter":873.2315778538},{"osm_id":3475506076,"name":"Congreso de Tucum\u00e1n","lat":-34.5558009,"lon":-58.4622186,"pop":13693.8325192272,"city":"Buenos Aires","country":"Argentina","distanceToCenter":7878.5046014678},{"osm_id":256242125,"name":"Constituci\u00f3n","lat":-34.6273936,"lon":-58.3811172,"pop":9717.4850935843,"city":"Buenos Aires","country":"Argentina","distanceToCenter":3147.972540419},{"osm_id":3905676973,"name":"C\u00f3rdoba","lat":-34.5991974,"lon":-58.4039401,"pop":23363.1296327364,"city":"Buenos Aires","country":"Argentina","distanceToCenter":694.4837323319},{"osm_id":6517436882,"name":"Correo Central","lat":-34.6037,"lon":-58.3702237,"pop":8511.587887565,"city":"Buenos Aires","country":"Argentina","distanceToCenter":2500.0314498856},{"osm_id":3905676972,"name":"Corrientes","lat":-34.6041224,"lon":-58.4053431,"pop":23721.7287637796,"city":"Buenos Aires","country":"Argentina","distanceToCenter":740.1609975334},{"osm_id":256242251,"name":"Diagonal Norte","lat":-34.604769,"lon":-58.3795115,"pop":12072.3362868309,"city":"Buenos Aires","country":"Argentina","distanceToCenter":1665.609742609},{"osm_id":4723478047,"name":"Dorrego","lat":-34.5917642,"lon":-58.4474918,"pop":10563.8626425008,"city":"Buenos Aires","country":"Argentina","distanceToCenter":4728.9915283626},{"osm_id":5042032828,"name":"Echeverr\u00eda","lat":-34.5779686,"lon":-58.4807356,"pop":10176.0510609105,"city":"Buenos Aires","country":"Argentina","distanceToCenter":8092.8943034296},{"osm_id":5281196417,"name":"Emilio Mitre","lat":-34.6314574,"lon":-58.4423592,"pop":15933.6164627298,"city":"Buenos Aires","country":"Argentina","distanceToCenter":5217.2188811569},{"osm_id":4706146861,"name":"Entre R\u00edos - Rodolfo Walsh","lat":-34.6227394,"lon":-58.3914497,"pop":14434.0078511993,"city":"Buenos Aires","country":"Argentina","distanceToCenter":2317.6298163137},{"osm_id":5624730306,"name":"Facultad de Derecho - Julieta Lanteri","lat":-34.5830687,"lon":-58.3910479,"pop":14678.9662665871,"city":"Buenos Aires","country":"Argentina","distanceToCenter":2239.9267770189},{"osm_id":3475502530,"name":"Facultad de Medicina","lat":-34.5997479,"lon":-58.3977392,"pop":23058.5343451667,"city":"Buenos Aires","country":"Argentina","distanceToCenter":306.8017080601},{"osm_id":4407302011,"name":"Florida","lat":-34.6033487,"lon":-58.3745624,"pop":8788.6981355196,"city":"Buenos Aires","country":"Argentina","distanceToCenter":2101.4922330415},{"osm_id":3447885516,"name":"General San Mart\u00edn","lat":-34.5950235,"lon":-58.3778987,"pop":10419.9391178964,"city":"Buenos Aires","country":"Argentina","distanceToCenter":1977.3612417866},{"osm_id":3962440380,"name":"Hospitales","lat":-34.6416988,"lon":-58.4126594,"pop":11776.169794285,"city":"Buenos Aires","country":"Argentina","distanceToCenter":4574.1136190202},{"osm_id":3962440381,"name":"Humberto I","lat":-34.6230697,"lon":-58.4023299,"pop":19993.349522583,"city":"Buenos Aires","country":"Argentina","distanceToCenter":2329.563207731},{"osm_id":3962440382,"name":"Incl\u00e1n-Mezquita Al Ahmad","lat":-34.629304,"lon":-58.400961,"pop":10273.0117069465,"city":"Buenos Aires","country":"Argentina","distanceToCenter":2997.249699992},{"osm_id":256242144,"name":"Independencia (E)","lat":-34.6181099,"lon":-58.3814646,"pop":19429.5451630115,"city":"Buenos Aires","country":"Argentina","distanceToCenter":2272.9717545476},{"osm_id":3475506077,"name":"Jos\u00e9 Hern\u00e1ndez","lat":-34.566256,"lon":-58.4520698,"pop":14935.3076088367,"city":"Buenos Aires","country":"Argentina","distanceToCenter":6418.6039765829},{"osm_id":5281196822,"name":"Jos\u00e9 Mar\u00eda Moreno","lat":-34.6280256,"lon":-58.4338861,"pop":10786.3287008712,"city":"Buenos Aires","country":"Argentina","distanceToCenter":4375.3080594279},{"osm_id":5271314475,"name":"Juan Manuel de Rosas","lat":-34.5739773,"lon":-58.4868061,"pop":13719.3057729921,"city":"Buenos Aires","country":"Argentina","distanceToCenter":8768.8715400985},{"osm_id":5278916451,"name":"Jujuy","lat":-34.6238418,"lon":-58.4027603,"pop":19409.6106613835,"city":"Buenos Aires","country":"Argentina","distanceToCenter":2421.4336260197},{"osm_id":5272972076,"name":"Juramento","lat":-34.5624355,"lon":-58.4563786,"pop":10495.4409728836,"city":"Buenos Aires","country":"Argentina","distanceToCenter":6992.9347754957},{"osm_id":4601987135,"name":"Las Heras","lat":-34.5875522,"lon":-58.3972196,"pop":19028.1711376089,"city":"Buenos Aires","country":"Argentina","distanceToCenter":1662.3176787595},{"osm_id":256244943,"name":"Lavalle","lat":-34.602241,"lon":-58.3781263,"pop":14166.6178662911,"city":"Buenos Aires","country":"Argentina","distanceToCenter":1773.4306514109},{"osm_id":5267306824,"name":"Leandro N. Alem","lat":-34.6029951,"lon":-58.3696343,"pop":20224.5912835519,"city":"Buenos Aires","country":"Argentina","distanceToCenter":2551.0178977594},{"osm_id":3449235012,"name":"Lima","lat":-34.6091155,"lon":-58.3825637,"pop":11778.0293959736,"city":"Buenos Aires","country":"Argentina","distanceToCenter":1552.3591409578},{"osm_id":3449220578,"name":"Loria","lat":-34.6108281,"lon":-58.4155501,"pop":8039.2501871814,"city":"Buenos Aires","country":"Argentina","distanceToCenter":1893.8193103844},{"osm_id":4865564991,"name":"Los Incas - Parque Chas","lat":-34.5812088,"lon":-58.4743442,"pop":12441.7860184728,"city":"Buenos Aires","country":"Argentina","distanceToCenter":7421.8544606977},{"osm_id":4871207944,"name":"Malabia - Osvaldo Pugliese","lat":-34.5990344,"lon":-58.4396927,"pop":22139.7240853546,"city":"Buenos Aires","country":"Argentina","distanceToCenter":3880.9817204131},{"osm_id":5281196408,"name":"Medalla Milagrosa","lat":-34.6363065,"lon":-58.4501913,"pop":9591.8678161479,"city":"Buenos Aires","country":"Argentina","distanceToCenter":6113.8419554773},{"osm_id":5271314477,"name":"Medrano - Almagro","lat":-34.6032012,"lon":-58.4208126,"pop":12605.385081583,"city":"Buenos Aires","country":"Argentina","distanceToCenter":2135.1202400398},{"osm_id":5272972081,"name":"Olleros","lat":-34.5702528,"lon":-58.4443609,"pop":13940.9122836464,"city":"Buenos Aires","country":"Argentina","distanceToCenter":5591.0588501256},{"osm_id":3905676975,"name":"Once - 30 de Diciembre","lat":-34.6091557,"lon":-58.4060183,"pop":19466.7616208365,"city":"Buenos Aires","country":"Argentina","distanceToCenter":1074.9489978016},{"osm_id":3962440383,"name":"Parque Patricios","lat":-34.6384945,"lon":-58.4063149,"pop":11191.8480140655,"city":"Buenos Aires","country":"Argentina","distanceToCenter":4082.8766454133},{"osm_id":3449341470,"name":"Pasco","lat":-34.6096461,"lon":-58.3985172,"pop":12942.1321687601,"city":"Buenos Aires","country":"Argentina","distanceToCenter":800.0450202198},{"osm_id":5271314480,"name":"Pasteur - AMIA","lat":-34.6046438,"lon":-58.3994148,"pop":23990.521703245,"city":"Buenos Aires","country":"Argentina","distanceToCenter":295.8680919533},{"osm_id":3449235013,"name":"Per\u00fa","lat":-34.6085776,"lon":-58.3745001,"pop":11137.3117109933,"city":"Buenos Aires","country":"Argentina","distanceToCenter":2210.8283220405},{"osm_id":5278916461,"name":"Pichincha","lat":-34.6232137,"lon":-58.3975718,"pop":8938.7929225057,"city":"Buenos Aires","country":"Argentina","distanceToCenter":2303.2677245148},{"osm_id":3449235014,"name":"Piedras","lat":-34.6088397,"lon":-58.3785726,"pop":20761.2102953227,"city":"Buenos Aires","country":"Argentina","distanceToCenter":1870.2239493414},{"osm_id":5281196398,"name":"Plaza de los Virreyes - Eva Per\u00f3n","lat":-34.6429239,"lon":-58.461676,"pop":21995.9341013149,"city":"Buenos Aires","country":"Argentina","distanceToCenter":7395.1806480136},{"osm_id":3449235015,"name":"Plaza de Mayo","lat":-34.608798,"lon":-58.3711432,"pop":10118.4191192445,"city":"Buenos Aires","country":"Argentina","distanceToCenter":2511.834661361},{"osm_id":3475502538,"name":"Plaza Italia","lat":-34.5814551,"lon":-58.4211107,"pop":17866.7316938034,"city":"Buenos Aires","country":"Argentina","distanceToCenter":3185.4449544077},{"osm_id":3449220579,"name":"Plaza Miserere","lat":-34.6097461,"lon":-58.4063571,"pop":11285.1860003696,"city":"Buenos Aires","country":"Argentina","distanceToCenter":1142.9356071583},{"osm_id":3449220580,"name":"Primera Junta","lat":-34.6205897,"lon":-58.4413922,"pop":10844.5301911399,"city":"Buenos Aires","country":"Argentina","distanceToCenter":4492.327543754},{"osm_id":3449220581,"name":"Puan","lat":-34.623559,"lon":-58.448639,"pop":8980.6339501657,"city":"Buenos Aires","country":"Argentina","distanceToCenter":5233.0906010602},{"osm_id":5271314479,"name":"Pueyrred\u00f3n (B)","lat":-34.6045673,"lon":-58.4054021,"pop":11853.7524225039,"city":"Buenos Aires","country":"Argentina","distanceToCenter":758.8899049055},{"osm_id":7684209870,"name":"Pueyrred\u00f3n (D)","lat":-34.5949245,"lon":-58.4031408,"pop":23963.6434156353,"city":"Buenos Aires","country":"Argentina","distanceToCenter":987.9948535086},{"osm_id":1085915826,"name":"Retiro (E)","lat":-34.5921903,"lon":-58.3761678,"pop":20562.8066439951,"city":"Buenos Aires","country":"Argentina","distanceToCenter":2264.2273650968},{"osm_id":3449220582,"name":"R\u00edo de Janeiro","lat":-34.6152413,"lon":-58.429492,"pop":17386.6181609611,"city":"Buenos Aires","country":"Argentina","distanceToCenter":3252.6378246209},{"osm_id":3449235016,"name":"S\u00e1enz Pe\u00f1a","lat":-34.6094069,"lon":-58.3867508,"pop":23768.8362705402,"city":"Buenos Aires","country":"Argentina","distanceToCenter":1248.0716109914},{"osm_id":4603095547,"name":"San Jos\u00e9","lat":-34.6223517,"lon":-58.3852048,"pop":22807.0668154848,"city":"Buenos Aires","country":"Argentina","distanceToCenter":2477.6425903295},{"osm_id":3449220583,"name":"San Jos\u00e9 de Flores","lat":-34.6290748,"lon":-58.4634771,"pop":10480.0079837046,"city":"Buenos Aires","country":"Argentina","distanceToCenter":6721.9826472805},{"osm_id":256242143,"name":"San Juan","lat":-34.622104,"lon":-58.379921,"pop":20980.8746519354,"city":"Buenos Aires","country":"Argentina","distanceToCenter":2709.2186869579},{"osm_id":3449220584,"name":"San Pedrito","lat":-34.630944,"lon":-58.4704936,"pop":13675.5145581549,"city":"Buenos Aires","country":"Argentina","distanceToCenter":7390.6211273343},{"osm_id":4308386687,"name":"Santa Fe - Carlos J\u00e1uregui","lat":-34.5947089,"lon":-58.4024287,"pop":11546.0425577036,"city":"Buenos Aires","country":"Argentina","distanceToCenter":976.7509332176},{"osm_id":3475502797,"name":"Scalabrini Ortiz","lat":-34.5851659,"lon":-58.4158912,"pop":14332.6434189997,"city":"Buenos Aires","country":"Argentina","distanceToCenter":2559.1221638043},{"osm_id":3475502800,"name":"Tribunales - Teatro Col\u00f3n","lat":-34.6017243,"lon":-58.3852237,"pop":9774.8378319781,"city":"Buenos Aires","country":"Argentina","distanceToCenter":1126.9096249862},{"osm_id":4826398079,"name":"Tronador - Villa Ort\u00fazar","lat":-34.584083,"lon":-58.4663718,"pop":13234.4317494945,"city":"Buenos Aires","country":"Argentina","distanceToCenter":6628.5245121125},{"osm_id":4868679923,"name":"Uruguay","lat":-34.604043,"lon":-58.3870845,"pop":22802.9385093131,"city":"Buenos Aires","country":"Argentina","distanceToCenter":968.5955685041},{"osm_id":5281196403,"name":"Varela","lat":-34.6398165,"lon":-58.4580134,"pop":13630.1612095538,"city":"Buenos Aires","country":"Argentina","distanceToCenter":6919.4793802531},{"osm_id":3962443157,"name":"Venezuela","lat":-34.6152097,"lon":-58.404737,"pop":15051.6694401726,"city":"Buenos Aires","country":"Argentina","distanceToCenter":1560.7554044844},{"osm_id":4812753920,"name":"Federico Lacroze","lat":-34.5871827,"lon":-58.4551513,"pop":8830.3942349769,"city":"Buenos Aires","country":"Argentina","distanceToCenter":5545.1217778388},{"osm_id":5278923154,"name":"General Urquiza","lat":-34.6246886,"lon":-58.4097487,"pop":14764.3567633748,"city":"Buenos Aires","country":"Argentina","distanceToCenter":2709.9517148012},{"osm_id":3475502534,"name":"Ministro Carranza","lat":-34.5752014,"lon":-58.4346817,"pop":12535.602600903,"city":"Buenos Aires","country":"Argentina","distanceToCenter":4560.5759868173},{"osm_id":3475502536,"name":"Palermo","lat":-34.5784903,"lon":-58.4256173,"pop":23327.8518772077,"city":"Buenos Aires","country":"Argentina","distanceToCenter":3708.3970349347},{"osm_id":5377634307,"name":"\u0532\u0561\u0580\u0565\u056f\u0561\u0574\u0578\u0582\u0569\u0575\u0578\u0582\u0576","lat":40.19694,"lon":44.4950315,"pop":7371.8769439589,"city":"Yerevan","country":"Armenia","distanceToCenter":2356.0656165528},{"osm_id":5332871621,"name":"\u0533\u0578\u0580\u056e\u0561\u0580\u0561\u0576\u0561\u0575\u056b\u0576","lat":40.1410722,"lon":44.4986571,"pop":3820.1439942978,"city":"Yerevan","country":"Armenia","distanceToCenter":4639.1793174656},{"osm_id":5377634304,"name":"\u0535\u0580\u056b\u057f\u0561\u057d\u0561\u0580\u0564\u0561\u056f\u0561\u0576","lat":40.1862126,"lon":44.519885,"pop":4267.0965289566,"city":"Yerevan","country":"Armenia","distanceToCenter":771.8372311496},{"osm_id":5377634301,"name":"\u0536\u0578\u0580\u0561\u057e\u0561\u0580 \u0531\u0576\u0564\u0580\u0561\u0576\u056b\u056f","lat":40.1712527,"lon":44.5121889,"pop":7580.623286476,"city":"Yerevan","country":"Armenia","distanceToCenter":1112.5674979217},{"osm_id":5377634303,"name":"\u0540\u0561\u0576\u0580\u0561\u057a\u0565\u057f\u0578\u0582\u0569\u0575\u0561\u0576 \u0540\u0580\u0561\u057a\u0561\u0580\u0561\u056f","lat":40.1775813,"lon":44.5155349,"pop":7214.3524083383,"city":"Yerevan","country":"Armenia","distanceToCenter":434.6628599266},{"osm_id":5377634306,"name":"\u0544\u0561\u0580\u0577\u0561\u056c \u0532\u0561\u0572\u0580\u0561\u0574\u0575\u0561\u0576","lat":40.191477,"lon":44.5078858,"pop":7406.8808678015,"city":"Yerevan","country":"Armenia","distanceToCenter":1241.5705004677},{"osm_id":5332867819,"name":"\u054d\u0561\u057d\u0578\u0582\u0576\u0581\u056b \u0534\u0561\u057e\u056b\u0569","lat":40.1546043,"lon":44.5071543,"pop":8138.9176303167,"city":"Yerevan","country":"Armenia","distanceToCenter":3007.5958517807},{"osm_id":5332871623,"name":"\u0533\u0561\u0580\u0565\u0563\u056b\u0576 \u0546\u056a\u0564\u0565\u0570\u056b \u0570\u0580\u0561\u057a\u0561\u0580\u0561\u056f","lat":40.1502947,"lon":44.482637,"pop":3762.6149804728,"city":"Yerevan","country":"Armenia","distanceToCenter":4328.0366173317},{"osm_id":5332871624,"name":"\u0547\u0565\u0576\u0563\u0561\u057e\u056b\u0569","lat":40.1449161,"lon":44.4858505,"pop":3018.270948196,"city":"Yerevan","country":"Armenia","distanceToCenter":4673.1472988253},{"osm_id":10767372552,"name":"\u0549\u0561\u0580\u0562\u0561\u056d","lat":40.1407315,"lon":44.470778,"pop":4840.3898080355,"city":"Yerevan","country":"Armenia","distanceToCenter":5787.155643871},{"osm_id":6497471265,"name":"Chatswood","lat":-33.7974806,"lon":151.180939,"pop":6066.3087337172,"city":"Sydney","country":"Australia","distanceToCenter":13629.2159957408},{"osm_id":6503400516,"name":"Epping","lat":-33.7728628,"lon":151.0820902,"pop":3493.1586435067,"city":"Sydney","country":"Australia","distanceToCenter":18930.2276099185},{"osm_id":4155298891,"name":"Aderklaaer Stra\u00dfe","lat":48.2634265,"lon":16.4516287,"pop":4474.1311405325,"city":"Vienna","country":"Austria","distanceToCenter":9455.4459767974},{"osm_id":2018072719,"name":"Alaudagasse","lat":48.1536948,"lon":16.3823555,"pop":3544.8646075691,"city":"Vienna","country":"Austria","distanceToCenter":5279.7732959348},{"osm_id":4283722989,"name":"Alser Stra\u00dfe","lat":48.2167675,"lon":16.3418121,"pop":4743.1205237341,"city":"Vienna","country":"Austria","distanceToCenter":2617.2985390377},{"osm_id":4161088301,"name":"Alte Donau","lat":48.2382709,"lon":16.4247729,"pop":3259.3325004978,"city":"Vienna","country":"Austria","distanceToCenter":6056.7777879113},{"osm_id":4008355779,"name":"Alterlaa","lat":48.1505196,"lon":16.3168475,"pop":4054.8207969631,"city":"Vienna","country":"Austria","distanceToCenter":6624.3320161181},{"osm_id":2018072720,"name":"Altes Landgut","lat":48.1622926,"lon":16.383225,"pop":3770.8244748816,"city":"Vienna","country":"Austria","distanceToCenter":4370.2990089454},{"osm_id":4008355780,"name":"Am Sch\u00f6pfwerk","lat":48.1606776,"lon":16.3242066,"pop":4400.8067206977,"city":"Vienna","country":"Austria","distanceToCenter":5384.9787460824},{"osm_id":3598290667,"name":"Aspern Nord","lat":48.2345026,"lon":16.5044888,"pop":1887.9253835882,"city":"Vienna","country":"Austria","distanceToCenter":10912.8064694013},{"osm_id":4076415290,"name":"Aspernstra\u00dfe","lat":48.222586,"lon":16.4749418,"pop":4481.2544296513,"city":"Vienna","country":"Austria","distanceToCenter":8411.6531646922},{"osm_id":3071028227,"name":"Bahnhof Meidling","lat":48.1739672,"lon":16.3314815,"pop":4445.0778275889,"city":"Vienna","country":"Austria","distanceToCenter":3893.254621097},{"osm_id":3993274357,"name":"Braunschweiggasse","lat":48.1894027,"lon":16.29582,"pop":4193.651744602,"city":"Vienna","country":"Austria","distanceToCenter":5377.1091205958},{"osm_id":4281904637,"name":"Burggasse-Stadthalle","lat":48.2033124,"lon":16.3371994,"pop":4712.076673566,"city":"Vienna","country":"Austria","distanceToCenter":2209.8664669945},{"osm_id":4169472889,"name":"Donauinsel","lat":48.2292159,"lon":16.4113918,"pop":2436.5796794732,"city":"Vienna","country":"Austria","distanceToCenter":4644.1592356199},{"osm_id":4073135889,"name":"Donaumarina","lat":48.2063838,"lon":16.431461,"pop":2585.4237337553,"city":"Vienna","country":"Austria","distanceToCenter":4859.0051426461},{"osm_id":4076631293,"name":"Donauspital","lat":48.2194301,"lon":16.4666399,"pop":4548.8226172511,"city":"Vienna","country":"Austria","distanceToCenter":7721.4792294875},{"osm_id":4078094389,"name":"Donaustadtbr\u00fccke","lat":48.2117999,"lon":16.440166,"pop":2450.1341436519,"city":"Vienna","country":"Austria","distanceToCenter":5607.3885897842},{"osm_id":4281939061,"name":"Dresdner Stra\u00dfe","lat":48.2373082,"lon":16.3802291,"pop":4503.7432396317,"city":"Vienna","country":"Austria","distanceToCenter":4269.6029157141},{"osm_id":69484904,"name":"Enkplatz","lat":48.1747186,"lon":16.4147963,"pop":4746.2186230098,"city":"Vienna","country":"Austria","distanceToCenter":4546.2754908857},{"osm_id":4348320098,"name":"Erdberg","lat":48.1914136,"lon":16.4141569,"pop":4229.4338026704,"city":"Vienna","country":"Austria","distanceToCenter":3651.9902348276},{"osm_id":4008355781,"name":"Erlaaer Stra\u00dfe","lat":48.1419866,"lon":16.3165351,"pop":4054.7043499021,"city":"Vienna","country":"Austria","distanceToCenter":7442.8905244881},{"osm_id":4005736525,"name":"Floridsdorf","lat":48.2562384,"lon":16.4004908,"pop":4057.4672676145,"city":"Vienna","country":"Austria","distanceToCenter":6738.517691241},{"osm_id":4003901212,"name":"Friedensbr\u00fccke","lat":48.22771,"lon":16.364119,"pop":4258.6031502592,"city":"Vienna","country":"Austria","distanceToCenter":3086.6903206434},{"osm_id":62687115,"name":"Gasometer","lat":48.1851441,"lon":16.4174702,"pop":4461.5215967324,"city":"Vienna","country":"Austria","distanceToCenter":4116.7529547435},{"osm_id":4140677491,"name":"Gro\u00dffeldsiedlung","lat":48.2710952,"lon":16.4478821,"pop":4190.5627937506,"city":"Vienna","country":"Austria","distanceToCenter":9936.6319778857},{"osm_id":4281875074,"name":"Gumpendorfer Stra\u00dfe","lat":48.1907374,"lon":16.3375442,"pop":4467.7808698795,"city":"Vienna","country":"Austria","distanceToCenter":2387.2752772412},{"osm_id":3324474915,"name":"Handelskai","lat":48.2417359,"lon":16.3854154,"pop":3333.4621136065,"city":"Vienna","country":"Austria","distanceToCenter":4845.6444297601},{"osm_id":4076716391,"name":"Hardeggasse","lat":48.2208849,"lon":16.4578116,"pop":4407.6637643675,"city":"Vienna","country":"Austria","distanceToCenter":7146.6109938351},{"osm_id":3598290671,"name":"Hausfeldstra\u00dfe","lat":48.2334122,"lon":16.485618,"pop":3407.5468066483,"city":"Vienna","country":"Austria","distanceToCenter":9568.8491717247},{"osm_id":3488454904,"name":"Heiligenstadt","lat":48.2486697,"lon":16.3659272,"pop":4237.4611132143,"city":"Vienna","country":"Austria","distanceToCenter":5412.0532245323},{"osm_id":4348336039,"name":"Herrengasse","lat":48.209398,"lon":16.3656353,"pop":4558.2111119204,"city":"Vienna","country":"Austria","distanceToCenter":1047.452562269},{"osm_id":3993274358,"name":"Hietzing","lat":48.1875762,"lon":16.3045807,"pop":3834.7329989476,"city":"Vienna","country":"Austria","distanceToCenter":4800.2029460965},{"osm_id":3535818951,"name":"H\u00fctteldorf","lat":48.1969493,"lon":16.2609148,"pop":3650.5499429091,"city":"Vienna","country":"Austria","distanceToCenter":7840.4360731367},{"osm_id":4161779363,"name":"H\u00fctteldorfer Stra\u00dfe","lat":48.2000837,"lon":16.3110744,"pop":4665.5095817851,"city":"Vienna","country":"Austria","distanceToCenter":4115.2885346244},{"osm_id":4281932864,"name":"J\u00e4gerstra\u00dfe","lat":48.235224,"lon":16.3687097,"pop":4318.7353031134,"city":"Vienna","country":"Austria","distanceToCenter":3919.8477561026},{"osm_id":4161774320,"name":"Johnstra\u00dfe","lat":48.1976006,"lon":16.3205667,"pop":4698.88818017,"city":"Vienna","country":"Austria","distanceToCenter":3422.2550564118},{"osm_id":4283722990,"name":"Josefst\u00e4dter Stra\u00dfe","lat":48.2114659,"lon":16.3391653,"pop":4719.789369717,"city":"Vienna","country":"Austria","distanceToCenter":2399.7867890826},{"osm_id":4160807391,"name":"Kagran","lat":48.2430028,"lon":16.4329191,"pop":4462.4056481828,"city":"Vienna","country":"Austria","distanceToCenter":6855.9395822224},{"osm_id":4155868489,"name":"Kagraner Platz","lat":48.2502254,"lon":16.4432539,"pop":4769.0638314913,"city":"Vienna","country":"Austria","distanceToCenter":7964.5807085874},{"osm_id":4169259989,"name":"Kaiserm\u00fchlen - VIC","lat":48.232829,"lon":16.4164115,"pop":3452.481885481,"city":"Vienna","country":"Austria","distanceToCenter":5190.9596963667},{"osm_id":115184107,"name":"Kardinal-Nagl-Platz","lat":48.1975587,"lon":16.3998831,"pop":4410.1223684349,"city":"Vienna","country":"Austria","distanceToCenter":2481.7279961311},{"osm_id":3503264091,"name":"Karlsplatz","lat":48.2003908,"lon":16.3696627,"pop":4462.5847866498,"city":"Vienna","country":"Austria","distanceToCenter":231.1132954258},{"osm_id":4161779364,"name":"Kendlerstra\u00dfe","lat":48.2045707,"lon":16.3091223,"pop":4737.9851153724,"city":"Vienna","country":"Austria","distanceToCenter":4289.9834172925},{"osm_id":4167184427,"name":"Keplerplatz","lat":48.1793553,"lon":16.3761188,"pop":4867.8757904991,"city":"Vienna","country":"Austria","distanceToCenter":2401.5881992612},{"osm_id":3993342689,"name":"Kettenbr\u00fcckengasse","lat":48.1966328,"lon":16.358092,"pop":4550.9437233617,"city":"Vienna","country":"Austria","distanceToCenter":733.3706504055},{"osm_id":4073146389,"name":"Krieau","lat":48.2146912,"lon":16.4137446,"pop":3607.2681667784,"city":"Vienna","country":"Austria","distanceToCenter":3856.6828531568},{"osm_id":140069854,"name":"Landstra\u00dfe","lat":48.2057645,"lon":16.3856764,"pop":4518.7390559869,"city":"Vienna","country":"Austria","distanceToCenter":1552.2887795779},{"osm_id":3993274359,"name":"L\u00e4ngenfeldgasse","lat":48.1849187,"lon":16.3350467,"pop":4421.0277645125,"city":"Vienna","country":"Austria","distanceToCenter":2877.9759222169},{"osm_id":67029576,"name":"Leopoldau","lat":48.277582,"lon":16.4520703,"pop":3611.6829083224,"city":"Vienna","country":"Austria","distanceToCenter":10699.8675940851},{"osm_id":3993342690,"name":"Margareteng\u00fcrtel","lat":48.1884883,"lon":16.3430303,"pop":4488.4435547515,"city":"Vienna","country":"Austria","distanceToCenter":2165.8130398115},{"osm_id":1352828685,"name":"Meidling Hauptstra\u00dfe","lat":48.1836304,"lon":16.3281212,"pop":4401.2429723832,"city":"Vienna","country":"Austria","distanceToCenter":3383.6189217278},{"osm_id":3862884256,"name":"Messe-Prater","lat":48.2177786,"lon":16.4049308,"pop":4118.7436610552,"city":"Vienna","country":"Austria","distanceToCenter":3460.6270980034},{"osm_id":4283722991,"name":"Michelbeuern-AKH","lat":48.2211652,"lon":16.3441586,"pop":4735.0238424304,"city":"Vienna","country":"Austria","distanceToCenter":2881.6711004238},{"osm_id":4174037289,"name":"Nestroyplatz","lat":48.2153104,"lon":16.3855453,"pop":4498.9444461702,"city":"Vienna","country":"Austria","distanceToCenter":2206.6476268788},{"osm_id":4348437215,"name":"Neubaugasse","lat":48.1993161,"lon":16.3526723,"pop":4614.4384373468,"city":"Vienna","country":"Austria","distanceToCenter":1035.056141116},{"osm_id":4281927209,"name":"Neue Donau","lat":48.2462997,"lon":16.3947025,"pop":2782.6484131212,"city":"Vienna","country":"Austria","distanceToCenter":5553.2976978277},{"osm_id":2018072721,"name":"Neulaa","lat":48.1457661,"lon":16.3856058,"pop":4294.1191578875,"city":"Vienna","country":"Austria","distanceToCenter":6193.0319032212},{"osm_id":4012141489,"name":"Niederhofstra\u00dfe","lat":48.1807684,"lon":16.331145,"pop":4412.4968904457,"city":"Vienna","country":"Austria","distanceToCenter":3388.310617756},{"osm_id":4283722992,"name":"Nu\u00dfdorfer Stra\u00dfe","lat":48.2313384,"lon":16.3524653,"pop":4426.6038813986,"city":"Vienna","country":"Austria","distanceToCenter":3638.6417379444},{"osm_id":3993274360,"name":"Ober St.\u202fVeit","lat":48.192234,"lon":16.2761736,"pop":4047.4611264212,"city":"Vienna","country":"Austria","distanceToCenter":6757.8627602792},{"osm_id":2018072722,"name":"Oberlaa","lat":48.1423146,"lon":16.3998868,"pop":2590.5931145175,"city":"Vienna","country":"Austria","distanceToCenter":6872.8995156946},{"osm_id":4228503593,"name":"Ottakring","lat":48.2110317,"lon":16.3113574,"pop":4767.0647403956,"city":"Vienna","country":"Austria","distanceToCenter":4273.6933984185},{"osm_id":4008355782,"name":"Perfektastra\u00dfe","lat":48.1366232,"lon":16.3132527,"pop":4233.1292756473,"city":"Vienna","country":"Austria","distanceToCenter":8081.762446604},{"osm_id":3993342691,"name":"Pilgramgasse","lat":48.1921577,"lon":16.3543028,"pop":4565.6710887848,"city":"Vienna","country":"Austria","distanceToCenter":1261.4342225457},{"osm_id":3862884757,"name":"Praterstern","lat":48.2197676,"lon":16.3930785,"pop":4603.9774183157,"city":"Vienna","country":"Austria","distanceToCenter":2946.3870079775},{"osm_id":4155452193,"name":"Rennbahnweg","lat":48.2576086,"lon":16.4496328,"pop":4673.6136158089,"city":"Vienna","country":"Austria","distanceToCenter":8880.4794202931},{"osm_id":4167184437,"name":"Reumannplatz","lat":48.174919,"lon":16.377918,"pop":4862.2028921274,"city":"Vienna","country":"Austria","distanceToCenter":2912.3595532451},{"osm_id":69468988,"name":"Rochusgasse","lat":48.2020851,"lon":16.3922544,"pop":4536.5972608404,"city":"Vienna","country":"Austria","distanceToCenter":1915.4219917621},{"osm_id":4003901213,"name":"Ro\u00dfauer L\u00e4nde","lat":48.2223375,"lon":16.3675722,"pop":4312.6106227963,"city":"Vienna","country":"Austria","distanceToCenter":2484.8611380591},{"osm_id":60215284,"name":"Schlachthausgasse","lat":48.1944138,"lon":16.4067471,"pop":4480.5367679589,"city":"Vienna","country":"Austria","distanceToCenter":3039.8063019025},{"osm_id":3993274361,"name":"Sch\u00f6nbrunn","lat":48.1860172,"lon":16.3190474,"pop":4167.5140560004,"city":"Vienna","country":"Austria","distanceToCenter":3852.5282187165},{"osm_id":4003977155,"name":"Schottenring","lat":48.2173875,"lon":16.3723981,"pop":4319.3946032349,"city":"Vienna","country":"Austria","distanceToCenter":1980.5667176891},{"osm_id":4347738147,"name":"Schottentor","lat":48.2150481,"lon":16.3629278,"pop":4567.8166161903,"city":"Vienna","country":"Austria","distanceToCenter":1695.2559051681},{"osm_id":4003977156,"name":"Schwedenplatz","lat":48.2117248,"lon":16.3785895,"pop":4279.7939485384,"city":"Vienna","country":"Austria","distanceToCenter":1577.7092648539},{"osm_id":4161769952,"name":"Schweglerstra\u00dfe","lat":48.1976875,"lon":16.3286297,"pop":4674.1997520756,"city":"Vienna","country":"Austria","distanceToCenter":2825.956403482},{"osm_id":3598308198,"name":"Seestadt","lat":48.2262278,"lon":16.5083947,"pop":2104.5533595339,"city":"Vienna","country":"Austria","distanceToCenter":10903.6858080924},{"osm_id":4005731390,"name":"Siebenhirten","lat":48.130521,"lon":16.3098385,"pop":3748.8926334482,"city":"Vienna","country":"Austria","distanceToCenter":8798.208074508},{"osm_id":117527786,"name":"Simmering","lat":48.1697819,"lon":16.4205345,"pop":4879.0918678409,"city":"Vienna","country":"Austria","distanceToCenter":5222.887581385},{"osm_id":3488513522,"name":"Spittelau","lat":48.2355915,"lon":16.358076,"pop":4380.227240849,"city":"Vienna","country":"Austria","distanceToCenter":4007.6665337625},{"osm_id":4073027290,"name":"Stadion","lat":48.2104985,"lon":16.4204937,"pop":3517.804611243,"city":"Vienna","country":"Austria","distanceToCenter":4161.0338478268},{"osm_id":4077783491,"name":"Stadlau","lat":48.2197733,"lon":16.449558,"pop":4045.4232663323,"city":"Vienna","country":"Austria","distanceToCenter":6528.6209730278},{"osm_id":3993298632,"name":"Stadtpark","lat":48.202946,"lon":16.3798184,"pop":4478.8607718469,"city":"Vienna","country":"Austria","distanceToCenter":1032.9717540558},{"osm_id":3500528328,"name":"Stephansplatz","lat":48.2080838,"lon":16.3715166,"pop":4454.0750733312,"city":"Vienna","country":"Austria","distanceToCenter":969.9189887589},{"osm_id":4348336040,"name":"Stubentor","lat":48.2069483,"lon":16.3792758,"pop":4401.3609746031,"city":"Vienna","country":"Austria","distanceToCenter":1216.3116783536},{"osm_id":3124681405,"name":"S\u00fcdtiroler\u202fPlatz-Hauptbahnhof","lat":48.1870722,"lon":16.3735107,"pop":4852.2597016744,"city":"Vienna","country":"Austria","distanceToCenter":1526.0485877289},{"osm_id":4086541541,"name":"Taborstra\u00dfe","lat":48.2192624,"lon":16.3815518,"pop":4288.2934799037,"city":"Vienna","country":"Austria","distanceToCenter":2411.4718257565},{"osm_id":3500582336,"name":"Taubstummengasse","lat":48.1936873,"lon":16.3704158,"pop":4525.0839104961,"city":"Vienna","country":"Austria","distanceToCenter":756.7762918973},{"osm_id":4283722993,"name":"Thaliastra\u00dfe","lat":48.2078001,"lon":16.3380073,"pop":4719.2910845722,"city":"Vienna","country":"Austria","distanceToCenter":2289.6226257564},{"osm_id":2018072723,"name":"Troststra\u00dfe","lat":48.1690181,"lon":16.3802682,"pop":4618.247002617,"city":"Vienna","country":"Austria","distanceToCenter":3590.969295372},{"osm_id":4008355785,"name":"Tscherttegasse","lat":48.1649777,"lon":16.3277927,"pop":4612.206867489,"city":"Vienna","country":"Austria","distanceToCenter":4841.8791233115},{"osm_id":3993274362,"name":"Unter St. Veit","lat":48.1910668,"lon":16.2863684,"pop":4248.034745937,"city":"Vienna","country":"Austria","distanceToCenter":6029.2739983154},{"osm_id":4113713892,"name":"Volkstheater","lat":48.205275,"lon":16.3578591,"pop":4597.4112158822,"city":"Vienna","country":"Austria","distanceToCenter":873.8923616617},{"osm_id":4169757308,"name":"Vorgartenstra\u00dfe","lat":48.2236328,"lon":16.4010572,"pop":3910.8327472386,"city":"Vienna","country":"Austria","distanceToCenter":3663.9390110895},{"osm_id":4283722994,"name":"W\u00e4hringer Stra\u00dfe-Volksoper","lat":48.2256269,"lon":16.349517,"pop":4569.8892272485,"city":"Vienna","country":"Austria","distanceToCenter":3118.066453377},{"osm_id":4161756600,"name":"Westbahnhof","lat":48.1958783,"lon":16.3379226,"pop":4524.9705783049,"city":"Vienna","country":"Austria","distanceToCenter":2174.3620951645},{"osm_id":4348437231,"name":"Zieglergasse","lat":48.197145,"lon":16.3462979,"pop":4591.6527084562,"city":"Vienna","country":"Austria","distanceToCenter":1537.8563589592},{"osm_id":62687123,"name":"Zippererstra\u00dfe","lat":48.1804386,"lon":16.4120644,"pop":4755.1763129452,"city":"Vienna","country":"Austria","distanceToCenter":4011.1957321414},{"osm_id":1930089762,"name":"20 Yanvar","lat":40.404139,"lon":49.807702,"pop":9450.0542511453,"city":"Baku","country":"Azerbaijan","distanceToCenter":4718.3668737402},{"osm_id":5188836356,"name":"28 May","lat":40.3798619,"lon":49.8486359,"pop":13442.2266523449,"city":"Baku","country":"Azerbaijan","distanceToCenter":2065.5772423299},{"osm_id":6010348738,"name":"8 Noyabr","lat":40.4018671,"lon":49.8205094,"pop":12332.366917536,"city":"Baku","country":"Azerbaijan","distanceToCenter":3605.1300376118},{"osm_id":4168101319,"name":"Avtova\u011fzal Metro Stansiyas\u0131","lat":40.4215274,"lon":49.7952142,"pop":5568.8906401081,"city":"Baku","country":"Azerbaijan","distanceToCenter":6377.4683968952},{"osm_id":1148914625,"name":"Azadl\u0131q prospekti","lat":40.4259622,"lon":49.8429264,"pop":4417.6961246188,"city":"Baku","country":"Azerbaijan","distanceToCenter":3779.8653250463},{"osm_id":4802437812,"name":"Az\u0259r Neft Ya\u011f","lat":40.3772671,"lon":49.9104706,"pop":5742.753856363,"city":"Baku","country":"Azerbaijan","distanceToCenter":4553.601388281},{"osm_id":5996343785,"name":"B-4","lat":40.3937251,"lon":49.8282314,"pop":13749.729526234,"city":"Baku","country":"Azerbaijan","distanceToCenter":2881.9935986368},{"osm_id":5995369231,"name":"Bak\u0131 A\u011f \u015e\u0259h\u0259r","lat":40.3788687,"lon":49.8899873,"pop":5950.1059311564,"city":"Baku","country":"Azerbaijan","distanceToCenter":2979.4250364244},{"osm_id":670220144,"name":"Bakmil","lat":40.4141025,"lon":49.8788469,"pop":5805.7227242175,"city":"Baku","country":"Azerbaijan","distanceToCenter":2521.5132801825},{"osm_id":2295524457,"name":"C\u0259f\u0259r Cabbarl\u0131","lat":40.379652,"lon":49.8489498,"pop":13263.9194830139,"city":"Baku","country":"Azerbaijan","distanceToCenter":2070.4861931983},{"osm_id":1924834867,"name":"D\u0259rn\u0259g\u00fcl","lat":40.4257064,"lon":49.8616781,"pop":4619.8562748135,"city":"Baku","country":"Azerbaijan","distanceToCenter":3381.3261488897},{"osm_id":670217100,"name":"Elml\u0259r Akademiyas\u0131","lat":40.3751519,"lon":49.8154836,"pop":9913.7001327775,"city":"Baku","country":"Azerbaijan","distanceToCenter":4547.0112396118},{"osm_id":670220979,"name":"\u018fhm\u0259dli","lat":40.3855583,"lon":49.9539452,"pop":6734.0257984595,"city":"Baku","country":"Azerbaijan","distanceToCenter":7845.1574933681},{"osm_id":670219440,"name":"G\u0259nclik","lat":40.3998366,"lon":49.8509702,"pop":6128.24429053,"city":"Baku","country":"Azerbaijan","distanceToCenter":1076.4760558109},{"osm_id":670220993,"name":"H\u0259zi Aslanov Stansiyas\u0131","lat":40.3730376,"lon":49.9535736,"pop":6546.7970927234,"city":"Baku","country":"Azerbaijan","distanceToCenter":8125.5217342195},{"osm_id":670198805,"name":"\u0130\u00e7\u0259ri\u015f\u0259h\u0259r","lat":40.3659591,"lon":49.8316454,"pop":7027.5107777145,"city":"Baku","country":"Azerbaijan","distanceToCenter":4164.428791768},{"osm_id":670217274,"name":"\u0130n\u015faat\u00e7\u0131lar","lat":40.3890935,"lon":49.8023575,"pop":7646.4237066175,"city":"Baku","country":"Azerbaijan","distanceToCenter":5114.7752226376},{"osm_id":670220312,"name":"Koro\u011flu","lat":40.4208381,"lon":49.9180166,"pop":5498.5665758392,"city":"Baku","country":"Azerbaijan","distanceToCenter":5513.4768868553},{"osm_id":4161594118,"name":"Memar \u018fc\u0259mi","lat":40.4106981,"lon":49.813973,"pop":12475.0622380588,"city":"Baku","country":"Azerbaijan","distanceToCenter":4428.0611087164},{"osm_id":4802441983,"name":"M\u0259h\u0259mm\u0259d Hadi","lat":40.3724161,"lon":49.9520678,"pop":6553.0546450875,"city":"Baku","country":"Azerbaijan","distanceToCenter":8025.814487978},{"osm_id":670220410,"name":"Neft\u00e7il\u0259r","lat":40.411155,"lon":49.9425681,"pop":6456.6464860391,"city":"Baku","country":"Azerbaijan","distanceToCenter":7029.8379675929},{"osm_id":670219867,"name":"N\u0259riman N\u0259rimanov","lat":40.4029913,"lon":49.8710166,"pop":6122.8582460625,"city":"Baku","country":"Azerbaijan","distanceToCenter":1135.2639039215},{"osm_id":670217698,"name":"N\u0259simi","lat":40.4246452,"lon":49.8262798,"pop":4008.3407402467,"city":"Baku","country":"Azerbaijan","distanceToCenter":4460.557287877},{"osm_id":670216816,"name":"Nizami","lat":40.3793192,"lon":49.8300187,"pop":14287.8729917814,"city":"Baku","country":"Azerbaijan","distanceToCenter":3253.7006829341},{"osm_id":670220397,"name":"Qara Qarayev","lat":40.4176118,"lon":49.9339594,"pop":5809.3371854215,"city":"Baku","country":"Azerbaijan","distanceToCenter":6562.9466237456},{"osm_id":670199298,"name":"\u015eah \u0130smail X\u0259tai","lat":40.3829995,"lon":49.8722886,"pop":7466.88893314,"city":"Baku","country":"Azerbaijan","distanceToCenter":1612.7005902564},{"osm_id":670199291,"name":"Sahil","lat":40.3717359,"lon":49.8445559,"pop":10061.3688332711,"city":"Baku","country":"Azerbaijan","distanceToCenter":3016.4357036248},{"osm_id":3896778915,"name":"Ulduz metro","lat":40.4150869,"lon":49.892268,"pop":6156.8514757131,"city":"Baku","country":"Azerbaijan","distanceToCenter":3364.9206533214},{"osm_id":670220733,"name":"Xalqlar Dostlu\u011fu","lat":40.3968851,"lon":49.9529864,"pop":5745.2621965563,"city":"Baku","country":"Azerbaijan","distanceToCenter":7690.185330853},{"osm_id":8809282576,"name":"Xoc\u0259s\u0259n Depo Metro","lat":40.4230478,"lon":49.7796768,"pop":2404.2938385837,"city":"Baku","country":"Azerbaijan","distanceToCenter":7637.9700972836},{"osm_id":6292785236,"name":"\u0986\u0997\u09be\u09b0\u0997\u09be\u0981\u0993","lat":23.7784275,"lon":90.3800503,"pop":43076.5349549902,"city":"Dhaka","country":"Bangladesh","distanceToCenter":6803.8200204878},{"osm_id":10292253840,"name":"\u0989\u09a4\u09cd\u09a4\u09b0\u09be \u0989\u09a4\u09cd\u09a4\u09b0","lat":23.8691067,"lon":90.3675303,"pop":2517.141293053,"city":"Dhaka","country":"Bangladesh","distanceToCenter":16764.3011178495},{"osm_id":10292253843,"name":"\u0989\u09a4\u09cd\u09a4\u09b0\u09be \u09a6\u0995\u09cd\u09b7\u09bf\u09a3","lat":23.8459103,"lon":90.363247,"pop":932.4104800579,"city":"Dhaka","country":"Bangladesh","distanceToCenter":14414.5304190152},{"osm_id":10292253837,"name":"\u0989\u09a4\u09cd\u09a4\u09b0\u09be \u09ae\u09a7\u09cd\u09af","lat":23.8597207,"lon":90.3651833,"pop":826.03396254,"city":"Dhaka","country":"Bangladesh","distanceToCenter":15820.7606151584},{"osm_id":10294007258,"name":"\u0995\u09be\u099c\u09c0\u09aa\u09be\u09a1\u09bc\u09be","lat":23.7992408,"lon":90.3719878,"pop":92669.116126832,"city":"Dhaka","country":"Bangladesh","distanceToCenter":9250.0903885885},{"osm_id":10294576119,"name":"\u0995\u09be\u09b0\u0993\u09af\u09bc\u09be\u09a8 \u09ac\u09be\u099c\u09be\u09b0","lat":23.7512656,"lon":90.3927762,"pop":78628.0768889824,"city":"Dhaka","country":"Bangladesh","distanceToCenter":3521.7735364205},{"osm_id":10294553569,"name":"\u09a2\u09be\u0995\u09be \u09ac\u09bf\u09b6\u09cd\u09ac\u09ac\u09bf\u09a6\u09cd\u09af\u09be\u09b2\u09af\u09bc","lat":23.731724,"lon":90.3967606,"pop":39187.1765619341,"city":"Dhaka","country":"Bangladesh","distanceToCenter":1540.1561457475},{"osm_id":6292785241,"name":"\u09aa\u09b2\u09cd\u09b2\u09ac\u09c0","lat":23.8261574,"lon":90.3641863,"pop":33312.580188402,"city":"Dhaka","country":"Bangladesh","distanceToCenter":12318.4792703432},{"osm_id":10294553594,"name":"\u09ab\u09be\u09b0\u09cd\u09ae\u0997\u09c7\u099f","lat":23.7590394,"lon":90.3871113,"pop":64009.7847640745,"city":"Dhaka","country":"Bangladesh","distanceToCenter":4555.6784221111},{"osm_id":10294553574,"name":"\u09ac\u09be\u0982\u09b2\u09be\u09a6\u09c7\u09b6 \u09b8\u099a\u09bf\u09ac\u09be\u09b2\u09af\u09bc","lat":23.7300126,"lon":90.4074836,"pop":25313.1701629702,"city":"Dhaka","country":"Bangladesh","distanceToCenter":777.0019476479},{"osm_id":10294553601,"name":"\u09ac\u09bf\u099c\u09af\u09bc \u09b8\u09b0\u09a3\u09bf","lat":23.7607257,"lon":90.3829294,"pop":44076.8308271285,"city":"Dhaka","country":"Bangladesh","distanceToCenter":4932.6598424188},{"osm_id":10997298523,"name":"\u09ae\u09a4\u09bf\u099d\u09bf\u09b2","lat":23.7280587,"lon":90.4190551,"pop":48238.1570616106,"city":"Dhaka","country":"Bangladesh","distanceToCenter":1198.6466709242},{"osm_id":6292785240,"name":"\u09ae\u09bf\u09b0\u09aa\u09c1\u09b0 \u09e7\u09e6","lat":23.8083649,"lon":90.3682614,"pop":62793.7453743003,"city":"Dhaka","country":"Bangladesh","distanceToCenter":10331.5799440027},{"osm_id":10294007262,"name":"\u09ae\u09bf\u09b0\u09aa\u09c1\u09b0 \u09e7\u09e7","lat":23.8190959,"lon":90.3652809,"pop":47858.9530429595,"city":"Dhaka","country":"Bangladesh","distanceToCenter":11548.6851278461},{"osm_id":10294553581,"name":"\u09b6\u09be\u09b9\u09ac\u09be\u0997","lat":23.7400837,"lon":90.3960061,"pop":41167.4668746436,"city":"Dhaka","country":"Bangladesh","distanceToCenter":2282.5131283139},{"osm_id":6292785237,"name":"\u09b6\u09c7\u0993\u09a1\u09bc\u09be\u09aa\u09be\u09a1\u09bc\u09be","lat":23.7909631,"lon":90.3755087,"pop":71476.8698829503,"city":"Dhaka","country":"Bangladesh","distanceToCenter":8263.4480475844},{"osm_id":209191852,"name":"\u0410\u043a\u0430\u0434\u044d\u043c\u0456\u044f \u043d\u0430\u0432\u0443\u043a","lat":53.921762,"lon":27.59934,"pop":6220.3171829456,"city":"Minsk","country":"Belarus","distanceToCenter":3233.2801018619},{"osm_id":209186424,"name":"\u0410\u045e\u0442\u0430\u0437\u0430\u0432\u043e\u0434\u0441\u043a\u0430\u044f","lat":53.8692203,"lon":27.6479536,"pop":6203.9368531457,"city":"Minsk","country":"Belarus","distanceToCenter":6335.8455887893},{"osm_id":11105607961,"name":"\u0410\u044d\u0440\u0430\u0434\u0440\u043e\u043c\u043d\u0430\u044f","lat":53.8677526,"lon":27.547073,"pop":4407.6547567687,"city":"Minsk","country":"Belarus","distanceToCenter":3807.29779613},{"osm_id":246659390,"name":"\u0411\u0430\u0440\u044b\u0441\u0430\u045e\u0441\u043a\u0456 \u0442\u0440\u0430\u043a\u0442","lat":53.9387404,"lon":27.6666603,"pop":4506.6162070506,"city":"Minsk","country":"Belarus","distanceToCenter":7841.6520473448},{"osm_id":2899020808,"name":"\u0412\u0430\u043a\u0437\u0430\u043b\u044c\u043d\u0430\u044f","lat":53.8898402,"lon":27.5466801,"pop":6525.970239634,"city":"Minsk","country":"Belarus","distanceToCenter":1726.2306704131},{"osm_id":343252898,"name":"\u0413\u0440\u0443\u0448\u0430\u045e\u043a\u0430","lat":53.8867326,"lon":27.5148712,"pop":6392.7309749024,"city":"Minsk","country":"Belarus","distanceToCenter":3696.7136646998},{"osm_id":209191847,"name":"\u0406\u043d\u0441\u0442\u044b\u0442\u0443\u0442 \u041a\u0443\u043b\u044c\u0442\u0443\u0440\u044b","lat":53.8858375,"lon":27.5407553,"pop":6499.982700457,"city":"Minsk","country":"Belarus","distanceToCenter":2312.5735181035},{"osm_id":209186405,"name":"\u041a\u0430\u043c\u0435\u043d\u043d\u0430\u044f \u0413\u043e\u0440\u043a\u0430","lat":53.9069094,"lon":27.4359041,"pop":6275.5561298815,"city":"Minsk","country":"Belarus","distanceToCenter":8596.3185579458},{"osm_id":209186416,"name":"\u041a\u0430\u0441\u0442\u0440\u044b\u0447\u043d\u0456\u0446\u043a\u0430\u044f","lat":53.9021083,"lon":27.5621482,"pop":202.37499909,"city":"Minsk","country":"Belarus","distanceToCenter":374.1941177433},{"osm_id":209186407,"name":"\u041a\u0443\u043d\u0446\u0430\u045e\u0448\u0447\u044b\u043d\u0430","lat":53.9062312,"lon":27.4539802,"pop":5994.2123169016,"city":"Minsk","country":"Belarus","distanceToCenter":7410.2718674122},{"osm_id":277039518,"name":"\u041a\u0443\u043f\u0430\u043b\u0430\u045e\u0441\u043a\u0430\u044f","lat":53.9009334,"lon":27.5618112,"pop":217.6116896501,"city":"Minsk","country":"Belarus","distanceToCenter":330.4597517344},{"osm_id":209186425,"name":"\u041c\u0430\u0433\u0456\u043b\u0451\u045e\u0441\u043a\u0430\u044f","lat":53.861991,"lon":27.6742453,"pop":6071.1728996698,"city":"Minsk","country":"Belarus","distanceToCenter":8224.6473700143},{"osm_id":266680843,"name":"\u041c\u0430\u043b\u0430\u0434\u0437\u0451\u0436\u043d\u0430\u044f","lat":53.9066349,"lon":27.5229027,"pop":5265.9842492583,"city":"Minsk","country":"Belarus","distanceToCenter":2956.1711458313},{"osm_id":2000416935,"name":"\u041c\u0430\u043b\u0456\u043d\u0430\u045e\u043a\u0430","lat":53.8499212,"lon":27.4748139,"pop":6346.4060959213,"city":"Minsk","country":"Belarus","distanceToCenter":8198.3475991299},{"osm_id":209191854,"name":"\u041c\u0430\u0441\u043a\u043e\u045e\u0441\u043a\u0430\u044f","lat":53.92804,"lon":27.6281328,"pop":4563.2493954002,"city":"Minsk","country":"Belarus","distanceToCenter":5095.321329409},{"osm_id":343259523,"name":"\u041c\u0456\u0445\u0430\u043b\u043e\u0432\u0430","lat":53.8768881,"lon":27.4970954,"pop":6114.3479158742,"city":"Minsk","country":"Belarus","distanceToCenter":5229.876976878},{"osm_id":5340830232,"name":"\u041d\u0435\u043c\u0430\u0440\u0448\u0430\u043d\u0441\u043a\u0456 \u0421\u0430\u0434","lat":53.8501732,"lon":27.5367949,"pop":5250.0216124573,"city":"Minsk","country":"Belarus","distanceToCenter":5874.9115206847},{"osm_id":209186415,"name":"\u041d\u044f\u043c\u0456\u0433\u0430","lat":53.9058375,"lon":27.5540258,"pop":5332.1027036889,"city":"Minsk","country":"Belarus","distanceToCenter":1048.7584001995},{"osm_id":209191853,"name":"\u041f\u0430\u0440\u043a \u0427\u0430\u043b\u044e\u0441\u043a\u0456\u043d\u0446\u0430\u045e","lat":53.9242313,"lon":27.6137063,"pop":5873.0371168348,"city":"Minsk","country":"Belarus","distanceToCenter":4096.2033737635},{"osm_id":248520179,"name":"\u041f\u0430\u0440\u0442\u044b\u0437\u0430\u043d\u0441\u043a\u0430\u044f","lat":53.8762966,"lon":27.6288809,"pop":5072.6287658794,"city":"Minsk","country":"Belarus","distanceToCenter":4858.5793823272},{"osm_id":209186417,"name":"\u041f\u0435\u0440\u0448\u0430\u043c\u0430\u0439\u0441\u043a\u0430\u044f","lat":53.8938442,"lon":27.5709184,"pop":5475.4464854484,"city":"Minsk","country":"Belarus","distanceToCenter":740.667772707},{"osm_id":209191849,"name":"\u041f\u043b\u043e\u0448\u0447\u0430 \u041b\u0435\u043d\u0456\u043d\u0430","lat":53.8927624,"lon":27.5479121,"pop":6114.989470119,"city":"Minsk","country":"Belarus","distanceToCenter":1465.2542818796},{"osm_id":209191850,"name":"\u041f\u043b\u043e\u0448\u0447\u0430 \u041f\u0435\u0440\u0430\u043c\u043e\u0433\u0456","lat":53.9094761,"lon":27.5762295,"pop":6525.1748631451,"city":"Minsk","country":"Belarus","distanceToCenter":1228.0857184418},{"osm_id":209191851,"name":"\u041f\u043b\u043e\u0448\u0447\u0430 \u042f\u043a\u0443\u0431\u0430 \u041a\u043e\u043b\u0430\u0441\u0430","lat":53.9158438,"lon":27.5840411,"pop":6200.7945422691,"city":"Minsk","country":"Belarus","distanceToCenter":2099.7503805965},{"osm_id":209186421,"name":"\u041f\u0440\u0430\u043b\u0435\u0442\u0430\u0440\u0441\u043a\u0430\u044f","lat":53.8902509,"lon":27.5864709,"pop":6500.679841022,"city":"Minsk","country":"Belarus","distanceToCenter":1694.2216140178},{"osm_id":209186411,"name":"\u041f\u0443\u0448\u043a\u0456\u043d\u0441\u043a\u0430\u044f","lat":53.909671,"lon":27.4977357,"pop":6424.6838224778,"city":"Minsk","country":"Belarus","distanceToCenter":4637.5680330876},{"osm_id":343262691,"name":"\u041f\u044f\u0442\u0440\u043e\u045e\u0448\u0447\u044b\u043d\u0430","lat":53.8647191,"lon":27.486157,"pop":6436.4225234913,"city":"Minsk","country":"Belarus","distanceToCenter":6571.8813608564},{"osm_id":5340834021,"name":"\u0421\u043b\u0443\u0446\u043a\u0456 \u0413\u0430\u0441\u0446\u0456\u043d\u0435\u0446","lat":53.842292,"lon":27.533677,"pop":6009.9266653481,"city":"Minsk","country":"Belarus","distanceToCenter":6770.1363219046},{"osm_id":209186410,"name":"\u0421\u043f\u0430\u0440\u0442\u044b\u045e\u043d\u0430\u044f","lat":53.9084273,"lon":27.4795368,"pop":5360.0942694206,"city":"Minsk","country":"Belarus","distanceToCenter":5779.8940420474},{"osm_id":209186423,"name":"\u0422\u0440\u0430\u043a\u0442\u0430\u0440\u043d\u044b \u0437\u0430\u0432\u043e\u0434","lat":53.8899194,"lon":27.6145005,"pop":5375.0601436399,"city":"Minsk","country":"Belarus","distanceToCenter":3332.7645791466},{"osm_id":246659391,"name":"\u0423\u0440\u0443\u0447\u0447\u0430","lat":53.9453821,"lon":27.687899,"pop":5999.2319599606,"city":"Minsk","country":"Belarus","distanceToCenter":9410.1346354958},{"osm_id":209191855,"name":"\u0423\u0441\u0445\u043e\u0434","lat":53.9344069,"lon":27.6513776,"pop":5827.6477563026,"city":"Minsk","country":"Belarus","distanceToCenter":6742.5280821837},{"osm_id":11105993066,"name":"\u041a\u0430\u0432\u0430\u043b\u044c\u0441\u043a\u0430\u044f \u0421\u043b\u0430\u0431\u0430\u0434\u0430","lat":53.8770344,"lon":27.5496374,"pop":5121.7369997409,"city":"Minsk","country":"Belarus","distanceToCenter":2785.116081831},{"osm_id":11105993077,"name":"\u041f\u043b\u043e\u0448\u0447\u0430 \u0424\u0440\u0430\u043d\u0446\u0456\u0448\u043a\u0430 \u0411\u0430\u0433\u0443\u0448\u044d\u0432\u0456\u0447\u0430","lat":53.8963922,"lon":27.5379149,"pop":5307.0998447129,"city":"Minsk","country":"Belarus","distanceToCenter":1921.7429353283},{"osm_id":11105993084,"name":"\u042e\u0431\u0456\u043b\u0435\u0439\u043d\u0430\u044f \u043f\u043b\u043e\u0448\u0447\u0430","lat":53.9047267,"lon":27.5403848,"pop":6249.6155450897,"city":"Minsk","country":"Belarus","distanceToCenter":1796.0322715428},{"osm_id":5382893851,"name":"Anneessens","lat":50.8443013,"lon":4.345455,"pop":8308.588105052,"city":"Brussels","country":"Belgium","distanceToCenter":1491.6234199646},{"osm_id":142700511,"name":"Arts-Loi - Kunst-Wet","lat":50.8455451,"lon":4.36877,"pop":8511.6206296907,"city":"Brussels","country":"Belgium","distanceToCenter":2838.5538118663},{"osm_id":287288229,"name":"Bockstael","lat":50.8788488,"lon":4.347972,"pop":3951.0689710162,"city":"Brussels","country":"Belgium","distanceToCenter":5168.444775516},{"osm_id":6276214962,"name":"Bourse - Beurs","lat":50.8478282,"lon":4.3491201,"pop":8568.0347190182,"city":"Brussels","country":"Belgium","distanceToCenter":1960.5352145013},{"osm_id":142719362,"name":"De Brouck\u00e8re","lat":50.8499233,"lon":4.3523796,"pop":8338.6113758492,"city":"Brussels","country":"Belgium","distanceToCenter":2282.8603053893},{"osm_id":142700522,"name":"Gare Centrale - Centraal Station","lat":50.8465485,"lon":4.3586397,"pop":8660.3214667544,"city":"Brussels","country":"Belgium","distanceToCenter":2310.0156968384},{"osm_id":144276150,"name":"Heysel - Heizel","lat":50.8968737,"lon":4.3359769,"pop":3179.9807076756,"city":"Brussels","country":"Belgium","distanceToCenter":7071.5688132227},{"osm_id":142758829,"name":"H\u00f4tel des Monnaies - Munthof","lat":50.833342,"lon":4.3487828,"pop":11125.2796664439,"city":"Brussels","country":"Belgium","distanceToCenter":1087.3411686944},{"osm_id":144271273,"name":"Houba-Brugmann","lat":50.8894885,"lon":4.3377665,"pop":4049.6635878679,"city":"Brussels","country":"Belgium","distanceToCenter":6255.7357448702},{"osm_id":5380583021,"name":"Lemonnier","lat":50.8402745,"lon":4.3409753,"pop":10286.491683328,"city":"Brussels","country":"Belgium","distanceToCenter":944.4302027129},{"osm_id":145980763,"name":"Maelbeek - Maalbeek","lat":50.8438339,"lon":4.3769687,"pop":7939.9506096586,"city":"Brussels","country":"Belgium","distanceToCenter":3282.5302960089},{"osm_id":4902681745,"name":"Pannenhuis","lat":50.8735372,"lon":4.3429602,"pop":7233.7673902601,"city":"Brussels","country":"Belgium","distanceToCenter":4525.2708654784},{"osm_id":4618293165,"name":"Parc - Park","lat":50.8456068,"lon":4.3622545,"pop":8677.8956215438,"city":"Brussels","country":"Belgium","distanceToCenter":2450.7959158803},{"osm_id":4892514008,"name":"Porte de Hal - Hallepoort","lat":50.8339923,"lon":4.3428824,"pop":11264.7000523417,"city":"Brussels","country":"Belgium","distanceToCenter":677.3398845881},{"osm_id":142758834,"name":"Porte de Namur - Naamsepoort","lat":50.8382614,"lon":4.3616931,"pop":10136.9604696461,"city":"Brussels","country":"Belgium","distanceToCenter":2068.808861686},{"osm_id":144283201,"name":"Roi Baudouin - Koning Boudewijn","lat":50.8963504,"lon":4.327778,"pop":3547.9859629374,"city":"Brussels","country":"Belgium","distanceToCenter":7021.5873782331},{"osm_id":142719368,"name":"Sainte-Catherine - Sint-Katelijne","lat":50.8521404,"lon":4.3478425,"pop":9605.2106644143,"city":"Brussels","country":"Belgium","distanceToCenter":2330.5511460044},{"osm_id":142700510,"name":"Schuman","lat":50.8428062,"lon":4.3818382,"pop":6749.7339515602,"city":"Brussels","country":"Belgium","distanceToCenter":3568.5572553072},{"osm_id":144271265,"name":"Stuyvenbergh","lat":50.886095,"lon":4.3419624,"pop":3022.6524811855,"city":"Brussels","country":"Belgium","distanceToCenter":5901.9370554783},{"osm_id":142758883,"name":"Tr\u00f4ne - Troon","lat":50.841247,"lon":4.3665164,"pop":9228.55148288,"city":"Brussels","country":"Belgium","distanceToCenter":2494.3102265418},{"osm_id":143701411,"name":"Yser - IJzer","lat":50.8573007,"lon":4.3513146,"pop":7997.6734295654,"city":"Brussels","country":"Belgium","distanceToCenter":2953.3039817969},{"osm_id":5365398604,"name":"Calafate","lat":-19.9223787,"lon":-43.9703206,"pop":7484.4901786554,"city":"Belo Horizonte","country":"Brazil","distanceToCenter":5841.2863410969},{"osm_id":5365396588,"name":"Carlos Prates","lat":-19.9174707,"lon":-43.9564401,"pop":4006.2418186646,"city":"Belo Horizonte","country":"Brazil","distanceToCenter":4341.0382513922},{"osm_id":7773976736,"name":"Central","lat":-19.9170609,"lon":-43.9330249,"pop":6819.8101668422,"city":"Belo Horizonte","country":"Brazil","distanceToCenter":1898.2902887396},{"osm_id":5363031124,"name":"Cidade Industrial","lat":-19.9455273,"lon":-44.0164592,"pop":4276.8463150872,"city":"Belo Horizonte","country":"Brazil","distanceToCenter":11136.0266941525},{"osm_id":5365199766,"name":"Floramar","lat":-19.8341883,"lon":-43.9403522,"pop":7805.5136910304,"city":"Belo Horizonte","country":"Brazil","distanceToCenter":9368.778723251},{"osm_id":7774375164,"name":"Gameleira","lat":-19.9280072,"lon":-43.9883105,"pop":4211.6111578432,"city":"Belo Horizonte","country":"Brazil","distanceToCenter":7799.2385570402},{"osm_id":5365389740,"name":"Horto","lat":-19.9061348,"lon":-43.9131052,"pop":7264.9776736679,"city":"Belo Horizonte","country":"Brazil","distanceToCenter":1005.4730279067},{"osm_id":5365386589,"name":"Jos\u00e9 C\u00e2ndido da Silveira","lat":-19.8833009,"lon":-43.9129451,"pop":5598.1692818102,"city":"Belo Horizonte","country":"Brazil","distanceToCenter":3531.3211383545},{"osm_id":5365391312,"name":"Lagoinha","lat":-19.9129311,"lon":-43.9425558,"pop":5014.996136949,"city":"Belo Horizonte","country":"Brazil","distanceToCenter":2890.020596978},{"osm_id":5365208176,"name":"Minas Shopping","lat":-19.8722399,"lon":-43.9252266,"pop":6958.2370586755,"city":"Belo Horizonte","country":"Brazil","distanceToCenter":4873.459516687},{"osm_id":5365204649,"name":"Primeiro de Maio","lat":-19.8579007,"lon":-43.9339472,"pop":7206.6752731451,"city":"Belo Horizonte","country":"Brazil","distanceToCenter":6651.081618593},{"osm_id":5365392544,"name":"Santa Efig\u00eania","lat":-19.9196938,"lon":-43.9226204,"pop":7574.0079673554,"city":"Belo Horizonte","country":"Brazil","distanceToCenter":952.4093820412},{"osm_id":5365385309,"name":"Santa In\u00eas","lat":-19.8952272,"lon":-43.9105194,"pop":6451.4300766424,"city":"Belo Horizonte","country":"Brazil","distanceToCenter":2247.987174635},{"osm_id":5365391617,"name":"Santa Tereza","lat":-19.9178917,"lon":-43.9126489,"pop":9056.309835552,"city":"Belo Horizonte","country":"Brazil","distanceToCenter":404.7275054518},{"osm_id":5371461010,"name":"S\u00e3o Gabriel","lat":-19.8632331,"lon":-43.9262206,"pop":8321.8997625181,"city":"Belo Horizonte","country":"Brazil","distanceToCenter":5874.5683885152},{"osm_id":5365193658,"name":"Vilarinho","lat":-19.8215537,"lon":-43.9475475,"pop":5666.2248002998,"city":"Belo Horizonte","country":"Brazil","distanceToCenter":10934.0252820772},{"osm_id":5365202168,"name":"Waldomiro Lobo","lat":-19.8477029,"lon":-43.9326454,"pop":7454.5918799311,"city":"Belo Horizonte","country":"Brazil","distanceToCenter":7707.2210657733},{"osm_id":8603327884,"name":"108 Sul","lat":-15.8189613,"lon":-47.9039672,"pop":6293.6649343392,"city":"Bras\u00edlia","country":"Brazil","distanceToCenter":4172.4307086677},{"osm_id":712848989,"name":"Acari \/ Fazenda Botafogo","lat":-22.8249975,"lon":-43.3493019,"pop":6937.1820015477,"city":"Bras\u00edlia","country":"Brazil","distanceToCenter":917805.2078238627},{"osm_id":5330886492,"name":"Acesso Norte","lat":-12.9689224,"lon":-38.4770136,"pop":8215.1637876158,"city":"Bras\u00edlia","country":"Brazil","distanceToCenter":1063600.3861051737},{"osm_id":4924414397,"name":"Adolfo Pinheiro","lat":-23.6500726,"lon":-46.7042057,"pop":7960.1372800263,"city":"Bras\u00edlia","country":"Brazil","distanceToCenter":883875.8452342061},{"osm_id":5317023255,"name":"Aerom\u00f3vel","lat":-29.9895792,"lon":-51.1758278,"pop":8413.1567574162,"city":"Bras\u00edlia","country":"Brazil","distanceToCenter":1614302.2299975473},{"osm_id":5280081375,"name":"Aeroporto","lat":-8.1341737,"lon":-34.9146661,"pop":7936.7581719895,"city":"Bras\u00edlia","country":"Brazil","distanceToCenter":1649234.2935349455},{"osm_id":5279929241,"name":"Afogados","lat":-8.0772839,"lon":-34.9062953,"pop":5269.9462939324,"city":"Bras\u00edlia","country":"Brazil","distanceToCenter":1653396.2148994391},{"osm_id":710950083,"name":"Afonso Pena \/ Tijuca","lat":-22.9184484,"lon":-43.2177451,"pop":12128.3178703434,"city":"Bras\u00edlia","country":"Brazil","distanceToCenter":933806.9979524993},{"osm_id":6992662722,"name":"Alto Alegre","lat":-3.8395365,"lon":-38.6005573,"pop":9994.2801872521,"city":"Bras\u00edlia","country":"Brazil","distanceToCenter":1673749.678745802},{"osm_id":5109491581,"name":"Alto da Boa Vista","lat":-23.6416337,"lon":-46.6994196,"pop":4693.197920776,"city":"Bras\u00edlia","country":"Brazil","distanceToCenter":883019.675643598},{"osm_id":5279927420,"name":"Alto do C\u00e9u","lat":-8.0848021,"lon":-34.9750051,"pop":100.4099808398,"city":"Bras\u00edlia","country":"Brazil","distanceToCenter":1646565.4704580163},{"osm_id":4443122951,"name":"Alto do Ipiranga","lat":-23.6022366,"lon":-46.6124857,"pop":6919.9613641905,"city":"Bras\u00edlia","country":"Brazil","distanceToCenter":880049.7909567145},{"osm_id":4924478010,"name":"Ana Rosa","lat":-23.5813085,"lon":-46.638396,"pop":6877.282763113,"city":"Bras\u00edlia","country":"Brazil","distanceToCenter":877335.5396408143},{"osm_id":3511781364,"name":"Anhangaba\u00fa","lat":-23.547819,"lon":-46.6392744,"pop":21440.3590446157,"city":"Bras\u00edlia","country":"Brazil","distanceToCenter":873643.5952529185},{"osm_id":4317159358,"name":"Antero de Quental \/ Leblon","lat":-22.9845429,"lon":-43.2236274,"pop":10928.564449623,"city":"Bras\u00edlia","country":"Brazil","distanceToCenter":939679.7222839207},{"osm_id":1418921322,"name":"Ant\u00f4nio Falc\u00e3o","lat":-8.1098917,"lon":-34.9090843,"pop":3069.8745561791,"city":"Bras\u00edlia","country":"Brazil","distanceToCenter":1651195.8654106653},{"osm_id":7055764714,"name":"Aracap\u00e9","lat":-3.8267832,"lon":-38.5919023,"pop":4219.7605137499,"city":"Bras\u00edlia","country":"Brazil","distanceToCenter":1675460.327385779},{"osm_id":979379521,"name":"Arniqueiras","lat":-15.8367271,"lon":-48.0170565,"pop":11532.607533806,"city":"Bras\u00edlia","country":"Brazil","distanceToCenter":12327.1599234702},{"osm_id":5369270072,"name":"Artur Alvim","lat":-23.5402438,"lon":-46.4847063,"pop":10854.3978121462,"city":"Bras\u00edlia","country":"Brazil","distanceToCenter":875431.5138615259},{"osm_id":5279929229,"name":"Barro","lat":-8.088879,"lon":-34.9457996,"pop":14044.1285166169,"city":"Bras\u00edlia","country":"Brazil","distanceToCenter":1649034.0883201628},{"osm_id":5369261562,"name":"Bel\u00e9m","lat":-23.5428718,"lon":-46.589615,"pop":563.7749264603,"city":"Bras\u00edlia","country":"Brazil","distanceToCenter":873909.9454607762},{"osm_id":6992486607,"name":"Benfica","lat":-3.7395374,"lon":-38.539639,"pop":12003.3457531951,"city":"Bras\u00edlia","country":"Brazil","distanceToCenter":1686701.4150809159},{"osm_id":1196075755,"name":"Bonoc\u00f4","lat":-12.983874,"lon":-38.4837886,"pop":13570.0227574401,"city":"Bras\u00edlia","country":"Brazil","distanceToCenter":1062383.5426505725},{"osm_id":5109495596,"name":"Borba Gato","lat":-23.6334661,"lon":-46.6928675,"pop":5819.9530793505,"city":"Bras\u00edlia","country":"Brazil","distanceToCenter":882220.5526466303},{"osm_id":506848463,"name":"Botafogo","lat":-22.9503653,"lon":-43.1842007,"pop":9169.8553064733,"city":"Bras\u00edlia","country":"Brazil","distanceToCenter":938649.2961727474},{"osm_id":4117565742,"name":"Br\u00e1s","lat":-23.5478581,"lon":-46.6159196,"pop":15121.7022346552,"city":"Bras\u00edlia","country":"Brazil","distanceToCenter":874024.6593516961},{"osm_id":5369262558,"name":"Bresser-Mooca","lat":-23.5463606,"lon":-46.6071519,"pop":11849.2279937132,"city":"Bras\u00edlia","country":"Brazil","distanceToCenter":874003.4748020866},{"osm_id":4962873828,"name":"Brigadeiro","lat":-23.568589,"lon":-46.6477629,"pop":180.1335393061,"city":"Bras\u00edlia","country":"Brazil","distanceToCenter":875789.6806527014},{"osm_id":5109495595,"name":"Brooklin","lat":-23.6268017,"lon":-46.6881279,"pop":11186.345108806,"city":"Bras\u00edlia","country":"Brazil","distanceToCenter":881559.8206384863},{"osm_id":5368617428,"name":"Butant\u00e3","lat":-23.5718995,"lon":-46.7080896,"pop":7282.2445562177,"city":"Bras\u00edlia","country":"Brazil","distanceToCenter":875220.2441758743},{"osm_id":5280081368,"name":"Cajueiro Seco","lat":-8.1683987,"lon":-34.9340785,"pop":10388.569945437,"city":"Bras\u00edlia","country":"Brazil","distanceToCenter":1645397.7699692822},{"osm_id":5279927406,"name":"Camaragibe","lat":-8.0246294,"lon":-34.9953255,"pop":20447.6509911582,"city":"Bras\u00edlia","country":"Brazil","distanceToCenter":1648289.7261753865},{"osm_id":10997645478,"name":"Campinas","lat":-12.915567,"lon":-38.4623272,"pop":4953.2293998981,"city":"Bras\u00edlia","country":"Brazil","distanceToCenter":1066981.7923533448},{"osm_id":6390726996,"name":"Campo Belo","lat":-23.6187309,"lon":-46.6822684,"pop":15771.5472762969,"city":"Bras\u00edlia","country":"Brazil","distanceToCenter":880762.0399273445},{"osm_id":8000500360,"name":"Campo Limpo","lat":-23.6492871,"lon":-46.7589484,"pop":8604.8532645684,"city":"Bras\u00edlia","country":"Brazil","distanceToCenter":882986.9198324537},{"osm_id":5317023245,"name":"Canoas \/ La Salle","lat":-29.9189932,"lon":-51.1820805,"pop":7785.8316998618,"city":"Bras\u00edlia","country":"Brazil","distanceToCenter":1606775.8557354826},{"osm_id":712849124,"name":"Cantagalo \/ Copacabana","lat":-22.9754882,"lon":-43.1944571,"pop":19841.7786170257,"city":"Bras\u00edlia","country":"Brazil","distanceToCenter":940434.4189965177},{"osm_id":5368613746,"name":"Cap\u00e3o Redondo","lat":-23.6591689,"lon":-46.7680006,"pop":6104.705341459,"city":"Bras\u00edlia","country":"Brazil","distanceToCenter":883945.7808760062},{"osm_id":165688241,"name":"Cardeal Arcoverde \/ Copacabana","lat":-22.9638248,"lon":-43.1813721,"pop":2461.1004050892,"city":"Bras\u00edlia","country":"Brazil","distanceToCenter":940065.0004812955},{"osm_id":712849053,"name":"Carioca \/ Centro","lat":-22.9075668,"lon":-43.1780446,"pop":11312.6302093252,"city":"Bras\u00edlia","country":"Brazil","distanceToCenter":934992.2539542359},{"osm_id":263302800,"name":"Carlito Benevides","lat":-3.8948129,"lon":-38.6205965,"pop":6419.2282507648,"city":"Bras\u00edlia","country":"Brazil","distanceToCenter":1667499.2080233956},{"osm_id":5369281661,"name":"Carr\u00e3o \u2013 Assa\u00ed Atacadista","lat":-23.5378874,"lon":-46.5642624,"pop":6706.1392110044,"city":"Bras\u00edlia","country":"Brazil","distanceToCenter":873788.349483987},{"osm_id":332517552,"name":"Catete","lat":-22.9259549,"lon":-43.1765501,"pop":10330.8069861105,"city":"Bras\u00edlia","country":"Brazil","distanceToCenter":936792.1847607847},{"osm_id":5279927404,"name":"Cavaleiro","lat":-8.0939756,"lon":-34.9727775,"pop":12927.5830874515,"city":"Bras\u00edlia","country":"Brazil","distanceToCenter":1646224.1719134171},{"osm_id":6992473950,"name":"Central - Chico da Silva","lat":-3.7201317,"lon":-38.5352742,"pop":4248.6843256188,"city":"Bras\u00edlia","country":"Brazil","distanceToCenter":1688719.4513461997},{"osm_id":5365436833,"name":"Central do Brasil \/ Centro","lat":-22.9046111,"lon":-43.1910571,"pop":20244.1702939554,"city":"Bras\u00edlia","country":"Brazil","distanceToCenter":933992.4227829446},{"osm_id":6969891170,"name":"Centro Metropolitano","lat":-15.8354488,"lon":-48.0861545,"pop":12437.376275393,"city":"Bras\u00edlia","country":"Brazil","distanceToCenter":19095.6452592709},{"osm_id":4923069358,"name":"Ch\u00e1cara Klabin","lat":-23.5926813,"lon":-46.6306807,"pop":23814.9832694644,"city":"Bras\u00edlia","country":"Brazil","distanceToCenter":878707.6952079551},{"osm_id":974274513,"name":"Cidade Nova","lat":-22.9087465,"lon":-43.2062984,"pop":3070.1304885042,"city":"Bras\u00edlia","country":"Brazil","distanceToCenter":933532.9044946554},{"osm_id":712849094,"name":"Cinel\u00e2ndia \/ Centro","lat":-22.9109063,"lon":-43.1756533,"pop":9942.7983277248,"city":"Bras\u00edlia","country":"Brazil","distanceToCenter":935437.0744451217},{"osm_id":5316930424,"name":"Cl\u00ednicas","lat":-23.554051,"lon":-46.6708841,"pop":7745.9652894639,"city":"Bras\u00edlia","country":"Brazil","distanceToCenter":873829.083865946},{"osm_id":712848988,"name":"Coelho Neto","lat":-22.8318735,"lon":-43.3429193,"pop":18155.4098020204,"city":"Bras\u00edlia","country":"Brazil","distanceToCenter":918800.9095106199},{"osm_id":712849000,"name":"Col\u00e9gio","lat":-22.8426601,"lon":-43.3345459,"pop":13057.191271227,"city":"Bras\u00edlia","country":"Brazil","distanceToCenter":920273.2115187994},{"osm_id":4922664269,"name":"Concei\u00e7\u00e3o","lat":-23.6350111,"lon":-46.641295,"pop":13797.124210253,"city":"Bras\u00edlia","country":"Brazil","distanceToCenter":883188.2778694849},{"osm_id":5159984416,"name":"Consola\u00e7\u00e3o","lat":-23.557818,"lon":-46.6605373,"pop":10197.6538437556,"city":"Bras\u00edlia","country":"Brazil","distanceToCenter":874404.9097761398},{"osm_id":5279929221,"name":"Coqueiral","lat":-8.0914369,"lon":-34.9647161,"pop":12881.6506468135,"city":"Bras\u00edlia","country":"Brazil","distanceToCenter":1647124.3936889749},{"osm_id":5370729520,"name":"Corinthians-Itaquera","lat":-23.5422994,"lon":-46.4712065,"pop":12219.9874195818,"city":"Bras\u00edlia","country":"Brazil","distanceToCenter":875899.0869933976},{"osm_id":5279927410,"name":"Cosme e Dami\u00e3o","lat":-8.0364239,"lon":-34.9885516,"pop":5684.083838963,"city":"Bras\u00edlia","country":"Brazil","distanceToCenter":1648208.1916582338},{"osm_id":4103129509,"name":"Couto Fernandes","lat":-3.7572761,"lon":-38.5574642,"pop":4328.867228326,"city":"Bras\u00edlia","country":"Brazil","distanceToCenter":1683937.2180791409},{"osm_id":5279927418,"name":"Curado","lat":-8.0759644,"lon":-34.9787989,"pop":4982.8246166121,"city":"Bras\u00edlia","country":"Brazil","distanceToCenter":1646741.9157527199},{"osm_id":712849005,"name":"Del Castilho","lat":-22.8792762,"lon":-43.2719274,"pop":13196.8743178352,"city":"Bras\u00edlia","country":"Brazil","distanceToCenter":927148.0585561621},{"osm_id":5362545412,"name":"Eldorado","lat":-19.9386989,"lon":-44.0294166,"pop":7247.1286315466,"city":"Bras\u00edlia","country":"Brazil","distanceToCenter":618550.0001620094},{"osm_id":712848991,"name":"Engenheiro Rubens Paiva","lat":-22.8162957,"lon":-43.3584824,"pop":3765.3883507207,"city":"Bras\u00edlia","country":"Brazil","distanceToCenter":916484.8193256002},{"osm_id":712849008,"name":"Engenho da Rainha","lat":-22.8679238,"lon":-43.2973765,"pop":6479.7564262913,"city":"Bras\u00edlia","country":"Brazil","distanceToCenter":924683.9100478939},{"osm_id":5279927400,"name":"Engenho Velho","lat":-8.1080182,"lon":-35.0051615,"pop":10196.9963616785,"city":"Bras\u00edlia","country":"Brazil","distanceToCenter":1642378.4447999401},{"osm_id":7055710061,"name":"Esperan\u00e7a","lat":-3.8171248,"lon":-38.5857936,"pop":12459.8332572372,"city":"Bras\u00edlia","country":"Brazil","distanceToCenter":1676726.1821282767},{"osm_id":246126554,"name":"Est\u00e1cio","lat":-22.9135438,"lon":-43.2065639,"pop":12447.822756956,"city":"Bras\u00edlia","country":"Brazil","distanceToCenter":933966.8133192826},{"osm_id":5320204165,"name":"Esteio","lat":-29.8520199,"lon":-51.1793504,"pop":5934.7684761498,"city":"Bras\u00edlia","country":"Brazil","distanceToCenter":1599453.4559952836},{"osm_id":5449373613,"name":"Eucaliptos","lat":-23.6097955,"lon":-46.668617,"pop":13878.9022460527,"city":"Bras\u00edlia","country":"Brazil","distanceToCenter":879990.2836741745},{"osm_id":5153876863,"name":"Faria Lima","lat":-23.5672551,"lon":-46.6939585,"pop":13565.1696136968,"city":"Bras\u00edlia","country":"Brazil","distanceToCenter":874924.2211863394},{"osm_id":5317023248,"name":"Farrapos","lat":-29.9972741,"lon":-51.197491,"pop":4711.1126219537,"city":"Bras\u00edlia","country":"Brazil","distanceToCenter":1615593.8283118769},{"osm_id":5317023244,"name":"F\u00e1tima","lat":-29.9379795,"lon":-51.1773772,"pop":4846.292924633,"city":"Bras\u00edlia","country":"Brazil","distanceToCenter":1608736.1448492871},{"osm_id":5320204166,"name":"Fenac","lat":-29.7009482,"lon":-51.1349789,"pop":12594.5014595569,"city":"Bras\u00edlia","country":"Brazil","distanceToCenter":1582124.3880280303},{"osm_id":9113671311,"name":"Flamengo","lat":-22.9371994,"lon":-43.1785326,"pop":3561.499794111,"city":"Bras\u00edlia","country":"Brazil","distanceToCenter":937732.5797261212},{"osm_id":5279927402,"name":"Floriano","lat":-8.1069468,"lon":-34.9930597,"pop":9048.6546442061,"city":"Bras\u00edlia","country":"Brazil","distanceToCenter":1643566.1082788932},{"osm_id":5148119198,"name":"Fradique Coutinho","lat":-23.5662284,"lon":-46.6841386,"pop":7375.3500837943,"city":"Bras\u00edlia","country":"Brazil","distanceToCenter":874962.0117414686},{"osm_id":5367720224,"name":"General Os\u00f3rio \/ Ipanema","lat":-22.9821162,"lon":-43.1964357,"pop":13345.194602319,"city":"Bras\u00edlia","country":"Brazil","distanceToCenter":940946.4833728673},{"osm_id":5368610130,"name":"Giovanni Gronchi","lat":-23.6439301,"lon":-46.7339828,"pop":14627.2749770403,"city":"Bras\u00edlia","country":"Brazil","distanceToCenter":882758.9180712991},{"osm_id":180337351,"name":"Gl\u00f3ria","lat":-22.9206456,"lon":-43.1767129,"pop":3015.7084006879,"city":"Bras\u00edlia","country":"Brazil","distanceToCenter":936287.3203458933},{"osm_id":5369273978,"name":"Guilhermina-Esperan\u00e7a","lat":-23.5293046,"lon":-46.5166401,"pop":10942.5625793624,"city":"Bras\u00edlia","country":"Brazil","distanceToCenter":873668.1197219895},{"osm_id":5356426230,"name":"Higien\u00f3polis-Mackenzie","lat":-23.5489592,"lon":-46.6523049,"pop":9570.4878478002,"city":"Bras\u00edlia","country":"Brazil","distanceToCenter":873561.52545613},{"osm_id":5930317872,"name":"Hospital S\u00e3o Paulo","lat":-23.5983833,"lon":-46.6455913,"pop":2452.5360306113,"city":"Bras\u00edlia","country":"Brazil","distanceToCenter":879096.8343126001},{"osm_id":5280081384,"name":"Imbiribeira","lat":-8.0902049,"lon":-34.9075129,"pop":3015.4538586775,"city":"Bras\u00edlia","country":"Brazil","distanceToCenter":1652513.2619524277},{"osm_id":5320204167,"name":"Industrial \/ Tintas Killing","lat":-29.7159017,"lon":-51.1349697,"pop":11446.7158409374,"city":"Bras\u00edlia","country":"Brazil","distanceToCenter":1583746.3106157365},{"osm_id":712849006,"name":"Inha\u00fama","lat":-22.8745685,"lon":-43.2834559,"pop":5814.921819037,"city":"Bras\u00edlia","country":"Brazil","distanceToCenter":926072.2804320824},{"osm_id":712848999,"name":"Iraj\u00e1","lat":-22.8480227,"lon":-43.3232651,"pop":1478.5272442562,"city":"Bras\u00edlia","country":"Brazil","distanceToCenter":921394.913595101},{"osm_id":4962907887,"name":"Jabaquara","lat":-23.6463382,"lon":-46.6410462,"pop":2847.4116773471,"city":"Bras\u00edlia","country":"Brazil","distanceToCenter":884436.5280974515},{"osm_id":5279927396,"name":"Jaboat\u00e3o","lat":-8.1111323,"lon":-35.015257,"pop":5535.3748036216,"city":"Bras\u00edlia","country":"Brazil","distanceToCenter":1641255.132071652},{"osm_id":4317159359,"name":"Jardim de Alah \/ Leblon","lat":-22.9837348,"lon":-43.2162656,"pop":2501.945893881,"city":"Bras\u00edlia","country":"Brazil","distanceToCenter":940007.804174513},{"osm_id":11154498637,"name":"Jardim Oce\u00e2nico \/ Barra da Tijuca","lat":-23.0068312,"lon":-43.3109573,"pop":28751.1842580081,"city":"Bras\u00edlia","country":"Brazil","distanceToCenter":937028.4296217776},{"osm_id":4964617785,"name":"Jardim S\u00e3o Paulo - Ayrton Senna","lat":-23.4924029,"lon":-46.6170103,"pop":3518.9853305845,"city":"Bras\u00edlia","country":"Brazil","distanceToCenter":867920.1049195993},{"osm_id":7055735691,"name":"Jereissati","lat":-3.8874736,"lon":-38.6269201,"pop":9385.8983898664,"city":"Bras\u00edlia","country":"Brazil","distanceToCenter":1667730.5507815608},{"osm_id":5279929242,"name":"Joana Bezerra","lat":-8.0732099,"lon":-34.8953949,"pop":2421.9594623283,"city":"Bras\u00edlia","country":"Brazil","distanceToCenter":1654652.1305032882},{"osm_id":6874599700,"name":"Jos\u00e9 de Alencar","lat":-3.7262586,"lon":-38.5324527,"pop":1786.0238470964,"city":"Bras\u00edlia","country":"Brazil","distanceToCenter":1688361.3532293146},{"osm_id":4717011138,"name":"Juscelino Kubitschek","lat":-3.766069,"lon":-38.5600972,"pop":23361.1662732463,"city":"Bras\u00edlia","country":"Brazil","distanceToCenter":1682979.3401265331},{"osm_id":5800854929,"name":"Lapa","lat":-12.9823694,"lon":-38.5122905,"pop":9655.8554947285,"city":"Bras\u00edlia","country":"Brazil","distanceToCenter":1059502.0120072742},{"osm_id":712849086,"name":"Largo do Machado","lat":-22.9311289,"lon":-43.1776913,"pop":13858.7854715977,"city":"Bras\u00edlia","country":"Brazil","distanceToCenter":937212.0796679627},{"osm_id":4438460892,"name":"Largo Treze","lat":-23.6544576,"lon":-46.7101664,"pop":9831.6214046635,"city":"Bras\u00edlia","country":"Brazil","distanceToCenter":884269.0411050147},{"osm_id":5320204168,"name":"Luiz Pasteur","lat":-29.8328064,"lon":-51.1655176,"pop":12534.3968928865,"city":"Bras\u00edlia","country":"Brazil","distanceToCenter":1597075.6714356849},{"osm_id":5279929236,"name":"Mangueira","lat":-8.0793417,"lon":-34.9211783,"pop":8861.7387772907,"city":"Bras\u00edlia","country":"Brazil","distanceToCenter":1651890.4977039103},{"osm_id":4117447795,"name":"Manoel S\u00e1tiro","lat":-3.7986353,"lon":-38.5748751,"pop":22407.6516431546,"city":"Bras\u00edlia","country":"Brazil","distanceToCenter":1679097.8957145542},{"osm_id":712849010,"name":"Maracan\u00e3","lat":-22.909716,"lon":-43.23389,"pop":9420.2733600263,"city":"Bras\u00edlia","country":"Brazil","distanceToCenter":932097.5737282099},{"osm_id":5368625730,"name":"Marechal Deodoro","lat":-23.5339809,"lon":-46.6558993,"pop":4855.4673361816,"city":"Bras\u00edlia","country":"Brazil","distanceToCenter":871859.3273212361},{"osm_id":712849002,"name":"Maria da Gra\u00e7a","lat":-22.8814941,"lon":-43.2601882,"pop":2913.3518687791,"city":"Bras\u00edlia","country":"Brazil","distanceToCenter":928002.6746091918},{"osm_id":5317023243,"name":"Mathias Velho","lat":-29.9037015,"lon":-51.1788273,"pop":8875.1566911508,"city":"Bras\u00edlia","country":"Brazil","distanceToCenter":1605048.152793953},{"osm_id":5317023252,"name":"Mercado","lat":-30.0262237,"lon":-51.2282361,"pop":12617.5562405567,"city":"Bras\u00edlia","country":"Brazil","distanceToCenter":1619386.0216215935},{"osm_id":5538620800,"name":"Moema","lat":-23.603776,"lon":-46.6621333,"pop":12299.6936932381,"city":"Bras\u00edlia","country":"Brazil","distanceToCenter":879429.5982766813},{"osm_id":3305872190,"name":"Mondubim","lat":-3.8075767,"lon":-38.5775967,"pop":8649.3682072576,"city":"Bras\u00edlia","country":"Brazil","distanceToCenter":1678121.1720401768},{"osm_id":5280081366,"name":"Monte dos Guararapes","lat":-8.1544625,"lon":-34.9201896,"pop":6889.8859445996,"city":"Bras\u00edlia","country":"Brazil","distanceToCenter":1647517.015092534},{"osm_id":5317023247,"name":"Niter\u00f3i","lat":-29.9546462,"lon":-51.176572,"pop":19894.429293693,"city":"Bras\u00edlia","country":"Brazil","distanceToCenter":1610527.4307569701},{"osm_id":4317159360,"name":"Nossa Senhora da Paz","lat":-22.9837208,"lon":-43.2060232,"pop":9056.9517954144,"city":"Bras\u00edlia","country":"Brazil","distanceToCenter":940569.2768152516},{"osm_id":5317023262,"name":"Novo Hamburgo","lat":-29.6867593,"lon":-51.1328965,"pop":3702.5839799367,"city":"Bras\u00edlia","country":"Brazil","distanceToCenter":1580541.0375380891},{"osm_id":5538960005,"name":"Oscar Freire","lat":-23.5607503,"lon":-46.6720286,"pop":10817.8566915668,"city":"Bras\u00edlia","country":"Brazil","distanceToCenter":874547.4360197205},{"osm_id":263302921,"name":"Padre C\u00edcero","lat":-3.7456244,"lon":-38.5457799,"pop":8922.592442517,"city":"Bras\u00edlia","country":"Brazil","distanceToCenter":1685751.2641274109},{"osm_id":4861900294,"name":"Para\u00edso","lat":-23.5753859,"lon":-46.6409603,"pop":9943.9007836785,"city":"Bras\u00edlia","country":"Brazil","distanceToCenter":876644.2372624914},{"osm_id":4717011131,"name":"Parangaba","lat":-3.7758227,"lon":-38.5638886,"pop":3925.0212154555,"city":"Bras\u00edlia","country":"Brazil","distanceToCenter":1681858.9842772188},{"osm_id":5369274765,"name":"Patriarca \u2022 Vila R\u00e9","lat":-23.5310464,"lon":-46.5015767,"pop":10094.7496198116,"city":"Bras\u00edlia","country":"Brazil","distanceToCenter":874124.25505535},{"osm_id":5148131318,"name":"Paulista - Pernambucanas","lat":-23.5552461,"lon":-46.6622682,"pop":13131.5736939497,"city":"Bras\u00edlia","country":"Brazil","distanceToCenter":874095.1641643534},{"osm_id":5362542035,"name":"Pavuna","lat":-22.8063182,"lon":-43.3654752,"pop":24406.0392359999,"city":"Bras\u00edlia","country":"Brazil","distanceToCenter":915164.0658690202},{"osm_id":4117571828,"name":"Pedro II","lat":-23.5496994,"lon":-46.6259819,"pop":3629.2408176184,"city":"Bras\u00edlia","country":"Brazil","distanceToCenter":874063.6695378714},{"osm_id":5369270115,"name":"Penha - Lojas Besni","lat":-23.5334949,"lon":-46.5426688,"pop":3286.382996864,"city":"Bras\u00edlia","country":"Brazil","distanceToCenter":873675.2910589147},{"osm_id":5320204169,"name":"Petrobras","lat":-29.876813,"lon":-51.1808787,"pop":11743.9533615733,"city":"Bras\u00edlia","country":"Brazil","distanceToCenter":1602175.0261119928},{"osm_id":8591328843,"name":"Piraj\u00e1","lat":-12.9243223,"lon":-38.4675301,"pop":12862.5598412488,"city":"Bras\u00edlia","country":"Brazil","distanceToCenter":1066138.1179988831},{"osm_id":4103129511,"name":"Porangabussu","lat":-3.7514739,"lon":-38.5516383,"pop":9038.0864260968,"city":"Bras\u00edlia","country":"Brazil","distanceToCenter":1684841.0494780934},{"osm_id":5280081371,"name":"Porta Larga","lat":-8.1470626,"lon":-34.9176151,"pop":12020.7933224142,"city":"Bras\u00edlia","country":"Brazil","distanceToCenter":1648195.3215066467},{"osm_id":5153861800,"name":"Pra\u00e7a da \u00c1rvore","lat":-23.6105051,"lon":-46.6379193,"pop":23407.4542822108,"city":"Bras\u00edlia","country":"Brazil","distanceToCenter":880549.8569422466},{"osm_id":6520133542,"name":"Pra\u00e7a do Rel\u00f3gio","lat":-15.8332767,"lon":-48.056332,"pop":15115.7400302079,"city":"Bras\u00edlia","country":"Brazil","distanceToCenter":15999.4374096961},{"osm_id":712849029,"name":"Pra\u00e7a Onze","lat":-22.909917,"lon":-43.200283,"pop":3760.4347532955,"city":"Bras\u00edlia","country":"Brazil","distanceToCenter":933975.8944604062},{"osm_id":5280081370,"name":"Prazeres","lat":-8.1611032,"lon":-34.9267699,"pop":5691.7492586257,"city":"Bras\u00edlia","country":"Brazil","distanceToCenter":1646510.6803143702},{"osm_id":7055759117,"name":"Rachel de Queiroz","lat":-3.8507786,"lon":-38.6083741,"pop":17268.5650335069,"city":"Bras\u00edlia","country":"Brazil","distanceToCenter":1672229.2749468058},{"osm_id":5279929237,"name":"Recife","lat":-8.0691737,"lon":-34.8853656,"pop":7212.071892448,"city":"Bras\u00edlia","country":"Brazil","distanceToCenter":1655824.8653760564},{"osm_id":4311953410,"name":"Rep\u00fablica","lat":-23.5440945,"lon":-46.642665,"pop":9409.7145247898,"city":"Bras\u00edlia","country":"Brazil","distanceToCenter":873180.4076628889},{"osm_id":5317023239,"name":"Rio dos Sinos","lat":-29.7490382,"lon":-51.1451595,"pop":4525.9279345736,"city":"Bras\u00edlia","country":"Brazil","distanceToCenter":1587557.0580074959},{"osm_id":5279927412,"name":"Rodovi\u00e1ria","lat":-8.0641557,"lon":-34.9809709,"pop":8436.8144387276,"city":"Bras\u00edlia","country":"Brazil","distanceToCenter":1647247.3918500596},{"osm_id":2726866239,"name":"Saara \/ Presidente Vargas","lat":-22.903341,"lon":-43.1861796,"pop":3805.3390834927,"city":"Bras\u00edlia","country":"Brazil","distanceToCenter":934145.040767186},{"osm_id":4432647540,"name":"Sacom\u00e3","lat":-23.6012824,"lon":-46.6025552,"pop":9039.4966098933,"city":"Bras\u00edlia","country":"Brazil","distanceToCenter":880106.5348220097},{"osm_id":1473517781,"name":"Saens Pe\u00f1a \/ Tijuca","lat":-22.924141,"lon":-43.2325924,"pop":8054.6756470654,"city":"Bras\u00edlia","country":"Brazil","distanceToCenter":933520.703836818},{"osm_id":6456339708,"name":"Samambaia","lat":-15.8736822,"lon":-48.0849112,"pop":4528.1971224513,"city":"Bras\u00edlia","country":"Brazil","distanceToCenter":20667.3169803772},{"osm_id":5369269022,"name":"Santa Cec\u00edlia","lat":-23.5393578,"lon":-46.6488371,"pop":15729.8462550103,"city":"Bras\u00edlia","country":"Brazil","distanceToCenter":872561.8950496631},{"osm_id":5320204170,"name":"Santo Afonso","lat":-29.7297322,"lon":-51.1403619,"pop":4801.6554186484,"city":"Bras\u00edlia","country":"Brazil","distanceToCenter":1585361.0140112871},{"osm_id":4143583173,"name":"Santo Amaro","lat":-23.6556547,"lon":-46.7209734,"pop":8724.4952150631,"city":"Bras\u00edlia","country":"Brazil","distanceToCenter":884240.3225777383},{"osm_id":5368635708,"name":"Santu\u00e1rio Nossa Senhora de F\u00e1tima - Sumar\u00e9","lat":-23.5510281,"lon":-46.6775867,"pop":10347.3938376249,"city":"Bras\u00edlia","country":"Brazil","distanceToCenter":873392.6489330849},{"osm_id":6992492887,"name":"S\u00e3o Benedito","lat":-3.7318123,"lon":-38.5345844,"pop":9979.9551441395,"city":"Bras\u00edlia","country":"Brazil","distanceToCenter":1687725.1908328952},{"osm_id":10750959453,"name":"S\u00e3o Conrado","lat":-22.9912296,"lon":-43.2550269,"pop":9921.5295992186,"city":"Bras\u00edlia","country":"Brazil","distanceToCenter":938591.2427241091},{"osm_id":710950049,"name":"S\u00e3o Francisco Xavier \/ Tijuca","lat":-22.920772,"lon":-43.2235819,"pop":8980.9464172992,"city":"Bras\u00edlia","country":"Brazil","distanceToCenter":933702.1194923398},{"osm_id":5153855592,"name":"S\u00e3o Judas","lat":-23.6258085,"lon":-46.6409209,"pop":319.5168152211,"city":"Bras\u00edlia","country":"Brazil","distanceToCenter":882183.277803055},{"osm_id":5317023240,"name":"S\u00e3o Leopoldo","lat":-29.7689152,"lon":-51.1411133,"pop":2859.5386452602,"city":"Bras\u00edlia","country":"Brazil","distanceToCenter":1589627.6308848828},{"osm_id":5317023242,"name":"S\u00e3o Lu\u00eds","lat":-29.8875691,"lon":-51.1795928,"pop":11325.2874635194,"city":"Bras\u00edlia","country":"Brazil","distanceToCenter":1603314.4263301268},{"osm_id":5942913082,"name":"S\u00e3o Paulo \u2013 Morumbi","lat":-23.5861368,"lon":-46.7239121,"pop":11788.0611014247,"city":"Bras\u00edlia","country":"Brazil","distanceToCenter":876549.0092723783},{"osm_id":5317023249,"name":"S\u00e3o Pedro","lat":-30.0063235,"lon":-51.2093911,"pop":6307.4091618638,"city":"Bras\u00edlia","country":"Brazil","distanceToCenter":1616827.4100154918},{"osm_id":5320204171,"name":"Sapucaia","lat":-29.8231985,"lon":-51.1490808,"pop":14142.8158833188,"city":"Bras\u00edlia","country":"Brazil","distanceToCenter":1595685.4465299083},{"osm_id":5153861350,"name":"Sa\u00fade \u2013 Ultrafarma","lat":-23.6182458,"lon":-46.6391896,"pop":12751.5036836826,"city":"Bras\u00edlia","country":"Brazil","distanceToCenter":881379.9474037583},{"osm_id":4311073828,"name":"S\u00e9","lat":-23.5504428,"lon":-46.6334463,"pop":9242.1700989993,"city":"Bras\u00edlia","country":"Brazil","distanceToCenter":874025.1032123215},{"osm_id":5280081373,"name":"Shopping","lat":-8.1162006,"lon":-34.9105544,"pop":14621.0510066378,"city":"Bras\u00edlia","country":"Brazil","distanceToCenter":1650684.1438392249},{"osm_id":712849129,"name":"Siqueira Campos \/ Copacabana","lat":-22.9673066,"lon":-43.1873375,"pop":3404.1518707266,"city":"Bras\u00edlia","country":"Brazil","distanceToCenter":940061.1102423823},{"osm_id":4424425022,"name":"Tatuap\u00e9","lat":-23.5402524,"lon":-46.5766424,"pop":5655.0789495919,"city":"Bras\u00edlia","country":"Brazil","distanceToCenter":873839.1135153085},{"osm_id":5279929225,"name":"Tejipi\u00f3","lat":-8.0903554,"lon":-34.9566413,"pop":16800.8357997146,"city":"Bras\u00edlia","country":"Brazil","distanceToCenter":1647938.9044638076},{"osm_id":712848995,"name":"Thom\u00e1z Coelho","lat":-22.8626005,"lon":-43.3067943,"pop":4069.2518380638,"city":"Bras\u00edlia","country":"Brazil","distanceToCenter":923667.2831281604},{"osm_id":5159984781,"name":"Trianon-Masp","lat":-23.5633121,"lon":-46.6542028,"pop":75.4381582049,"city":"Bras\u00edlia","country":"Brazil","distanceToCenter":875108.2118720495},{"osm_id":4924472501,"name":"Tucuruvi","lat":-23.4800747,"lon":-46.6032701,"pop":2289.5567634458,"city":"Bras\u00edlia","country":"Brazil","distanceToCenter":866793.7286564753},{"osm_id":5317023241,"name":"Unisinos","lat":-29.7869137,"lon":-51.1405047,"pop":12617.6009987265,"city":"Bras\u00edlia","country":"Brazil","distanceToCenter":1591567.4822805652},{"osm_id":1784229907,"name":"Uruguai \/ Tijuca","lat":-22.9309412,"lon":-43.2382699,"pop":20508.7253219859,"city":"Bras\u00edlia","country":"Brazil","distanceToCenter":933845.5555689291},{"osm_id":5284484734,"name":"Uruguaiana \/ Centro","lat":-22.9029089,"lon":-43.1818193,"pop":6548.0152866833,"city":"Bras\u00edlia","country":"Brazil","distanceToCenter":934347.3584647396},{"osm_id":4897835958,"name":"Vergueiro","lat":-23.5685349,"lon":-46.6399175,"pop":7604.4144753423,"city":"Bras\u00edlia","country":"Brazil","distanceToCenter":875908.4038312183},{"osm_id":712848997,"name":"Vicente de Carvalho","lat":-22.8540406,"lon":-43.3131537,"pop":24393.6072396138,"city":"Bras\u00edlia","country":"Brazil","distanceToCenter":922514.5208034716},{"osm_id":4170379232,"name":"Vila das Belezas","lat":-23.6402476,"lon":-46.7457694,"pop":10827.8739361831,"city":"Bras\u00edlia","country":"Brazil","distanceToCenter":882181.8862551148},{"osm_id":605663613,"name":"Vila Madalena","lat":-23.5464956,"lon":-46.6911243,"pop":7685.4973382965,"city":"Bras\u00edlia","country":"Brazil","distanceToCenter":872685.5060697161},{"osm_id":4964592035,"name":"Vila Mariana","lat":-23.5891777,"lon":-46.6346681,"pop":4291.4169162348,"city":"Bras\u00edlia","country":"Brazil","distanceToCenter":878259.2168527064},{"osm_id":5369273626,"name":"Vila Matilde","lat":-23.5319166,"lon":-46.5308731,"pop":1876.7796351097,"city":"Bras\u00edlia","country":"Brazil","distanceToCenter":873706.0918656709},{"osm_id":4117447796,"name":"Vila Pery","lat":-3.7841702,"lon":-38.5723593,"pop":8250.4602520345,"city":"Bras\u00edlia","country":"Brazil","distanceToCenter":1680552.6957473678},{"osm_id":4924500191,"name":"Vila Prudente","lat":-23.584427,"lon":-46.581938,"pop":6151.45994112,"city":"Bras\u00edlia","country":"Brazil","distanceToCenter":878596.416195416},{"osm_id":9346910951,"name":"Vila S\u00f4nia - Professora Elizabeth Tenreiro","lat":-23.5934343,"lon":-46.734809,"pop":7582.2970217642,"city":"Bras\u00edlia","country":"Brazil","distanceToCenter":877190.5432521466},{"osm_id":5279929231,"name":"Werneck","lat":-8.0859893,"lon":-34.9362451,"pop":12685.96960388,"city":"Bras\u00edlia","country":"Brazil","distanceToCenter":1650094.117541339},{"osm_id":8603327871,"name":"102 Sul","lat":-15.8057361,"lon":-47.889444,"pop":9984.9484567205,"city":"Bras\u00edlia","country":"Brazil","distanceToCenter":3789.2506159893},{"osm_id":8603327881,"name":"106 Sul","lat":-15.8149857,"lon":-47.8986511,"pop":25823.2277802005,"city":"Bras\u00edlia","country":"Brazil","distanceToCenter":3987.3548109675},{"osm_id":8603327887,"name":"110 Sul","lat":-15.822839,"lon":-47.9093479,"pop":15297.0422398969,"city":"Bras\u00edlia","country":"Brazil","distanceToCenter":4455.4936374499},{"osm_id":8603327890,"name":"112 Sul","lat":-15.8267349,"lon":-47.9147208,"pop":14512.0336982918,"city":"Bras\u00edlia","country":"Brazil","distanceToCenter":4831.9942121678},{"osm_id":8603327892,"name":"114 Sul","lat":-15.8306361,"lon":-47.9201189,"pop":3818.8391611162,"city":"Bras\u00edlia","country":"Brazil","distanceToCenter":5281.0677703758},{"osm_id":5730401533,"name":"AACD \u2013 Servidor","lat":-23.5978482,"lon":-46.6523883,"pop":2004.7545413958,"city":"Bras\u00edlia","country":"Brazil","distanceToCenter":878930.8905629119},{"osm_id":8530716675,"name":"\u00c1guas Claras","lat":-15.8400013,"lon":-48.0282556,"pop":6237.3964648601,"city":"Bras\u00edlia","country":"Brazil","distanceToCenter":13554.8482923838},{"osm_id":8539732924,"name":"Asa Sul","lat":-15.8370536,"lon":-47.9325231,"pop":1334.5176359802,"city":"Bras\u00edlia","country":"Brazil","distanceToCenter":6230.0391111094},{"osm_id":8534361871,"name":"Ceil\u00e2ndia","lat":-15.8055721,"lon":-48.1213138,"pop":4694.4178833386,"city":"Bras\u00edlia","country":"Brazil","distanceToCenter":22096.4210111962},{"osm_id":8534361748,"name":"Ceil\u00e2ndia Centro","lat":-15.8222783,"lon":-48.11191,"pop":17097.5752050187,"city":"Bras\u00edlia","country":"Brazil","distanceToCenter":21393.7916501634},{"osm_id":8534361776,"name":"Ceil\u00e2ndia Norte","lat":-15.8148846,"lon":-48.1161349,"pop":12688.7321345471,"city":"Bras\u00edlia","country":"Brazil","distanceToCenter":21688.8205715334},{"osm_id":8534361914,"name":"Ceil\u00e2ndia Sul","lat":-15.8377797,"lon":-48.1032938,"pop":6499.5250843486,"city":"Bras\u00edlia","country":"Brazil","distanceToCenter":20923.657790476},{"osm_id":8534347056,"name":"Concession\u00e1rias","lat":-15.8351513,"lon":-48.0386335,"pop":28143.20537622,"city":"Bras\u00edlia","country":"Brazil","distanceToCenter":14321.5557565535},{"osm_id":8534361937,"name":"Estrada Parque","lat":-15.8323871,"lon":-48.0452776,"pop":4525.7479712656,"city":"Bras\u00edlia","country":"Brazil","distanceToCenter":14859.441756224},{"osm_id":8539732694,"name":"Feira","lat":-15.823047,"lon":-47.9750151,"pop":4539.9118566638,"city":"Bras\u00edlia","country":"Brazil","distanceToCenter":7698.5002620145},{"osm_id":8530707396,"name":"Furnas","lat":-15.8649486,"lon":-48.0598039,"pop":7480.8811159084,"city":"Bras\u00edlia","country":"Brazil","distanceToCenter":17854.2357232424},{"osm_id":8603327860,"name":"Galeria","lat":-15.7989328,"lon":-47.8858033,"pop":8447.9143683726,"city":"Bras\u00edlia","country":"Brazil","distanceToCenter":3678.3507410177},{"osm_id":8539732653,"name":"Guar\u00e1","lat":-15.8266803,"lon":-47.9833824,"pop":5942.6225207292,"city":"Bras\u00edlia","country":"Brazil","distanceToCenter":8665.3276866364},{"osm_id":8534361725,"name":"Guariroba","lat":-15.8306185,"lon":-48.1073016,"pop":11978.2891055442,"city":"Bras\u00edlia","country":"Brazil","distanceToCenter":21122.4921442533},{"osm_id":5369277070,"name":"Jap\u00e3o - Liberdade","lat":-23.5551768,"lon":-46.6356017,"pop":8212.0595321181,"city":"Bras\u00edlia","country":"Brazil","distanceToCenter":874510.3772511058},{"osm_id":5368677484,"name":"Luz","lat":-23.5353887,"lon":-46.6344383,"pop":5948.903175126,"city":"Bras\u00edlia","country":"Brazil","distanceToCenter":872356.1454308254},{"osm_id":4593556119,"name":"Palmeiras - Barra Funda","lat":-23.5259743,"lon":-46.6674683,"pop":14585.7224534389,"city":"Bras\u00edlia","country":"Brazil","distanceToCenter":870797.4821731813},{"osm_id":4425010407,"name":"Pinheiros","lat":-23.567249,"lon":-46.7019515,"pop":10842.9703398877,"city":"Bras\u00edlia","country":"Brazil","distanceToCenter":874801.8039336771},{"osm_id":8530557433,"name":"Samambaia Sul","lat":-15.869041,"lon":-48.0715822,"pop":3853.325406726,"city":"Bras\u00edlia","country":"Brazil","distanceToCenter":19172.0845626492},{"osm_id":5369277944,"name":"S\u00e3o Bento","lat":-23.5440566,"lon":-46.6342733,"pop":21537.9920558108,"city":"Bras\u00edlia","country":"Brazil","distanceToCenter":873310.576361822},{"osm_id":712849019,"name":"S\u00e3o Crist\u00f3v\u00e3o","lat":-22.9096634,"lon":-43.2209935,"pop":1207.0133204298,"city":"Bras\u00edlia","country":"Brazil","distanceToCenter":932805.1016776394},{"osm_id":7717276955,"name":"S\u00e3o Joaquim","lat":-23.5615965,"lon":-46.6386084,"pop":15876.00767911,"city":"Bras\u00edlia","country":"Brazil","distanceToCenter":875167.2834527119},{"osm_id":8530716665,"name":"Taguatinga Sul","lat":-15.8518465,"lon":-48.0418845,"pop":10473.4997224101,"city":"Bras\u00edlia","country":"Brazil","distanceToCenter":15465.6304274076},{"osm_id":4119710093,"name":"Tamanduate\u00ed","lat":-23.5927867,"lon":-46.5895167,"pop":13057.3198388205,"city":"Bras\u00edlia","country":"Brazil","distanceToCenter":879388.1641561006},{"osm_id":712849014,"name":"Triagem","lat":-22.8968546,"lon":-43.2444785,"pop":10765.0307009026,"city":"Bras\u00edlia","country":"Brazil","distanceToCenter":930308.4374883063},